{"notifications": [{"item": {"unreadCount": 0}, "type": "notificationTray"}], "meta": {"code": 200, "requestId": "58dbc6954434b977a2cd206d"}, "response": {"confident": true, "venues": [{"referralId": "v-1490798229", "verified": false, "name": "O'Connor Hospital", "venueRatingBlacklisted": true, "url": "http://www.bassett.org/oconnor-hospital/", "hereNow": {"count": 0, "groups": [], "summary": "Nobody here"}, "specials": {"count": 0, "items": []}, "venueChains": [], "contact": {"phone": "+16077460300", "formattedPhone": "+1 607-746-0300"}, "hasPerk": false, "location": {"distance": 1675, "labeledLatLngs": [{"lat": 42.26828358739736, "lng": -74.91645571548379, "label": "display"}], "city": "Delhi", "cc": "US", "country": "United States", "postalCode": "13753", "state": "NY", "formattedAddress": ["460 Andes Rd", "Delhi, NY 13753", "United States"], "address": "460 Andes Rd", "lat": 42.26828358739736, "lng": -74.91645571548379}, "beenHere": {"lastCheckinExpiredAt": 0}, "stats": {"tipCount": 1, "checkinsCount": 146, "usersCount": 40}, "id": "4c75344cd8948cfa8ef566da", "categories": [{"pluralName": "Hospitals", "primary": true, "name": "Hospital", "shortName": "Hospital", "id": "4bf58dd8d48988d196941735", "icon": {"prefix": "https://ss3.4sqi.net/img/categories_v2/building/medical_", "suffix": ".png"}}]}, {"referralId": "v-1490798229", "verified": false, "name": "Bassett Healthcare Oneonta Specialty Services", "venueRatingBlacklisted": true, "venueChains": [], "hereNow": {"count": 1, "groups": [{"count": 1, "items": [], "type": "others", "name": "Other people here"}], "summary": "One other person is here"}, "specials": {"count": 0, "items": []}, "contact": {}, "hasPerk": false, "location": {"distance": 22676, "labeledLatLngs": [{"lat": 42.444970934340574, "lng": -75.08446140749348, "label": "display"}], "city": "Oneonta", "cc": "US", "country": "United States", "postalCode": "13820", "state": "NY", "formattedAddress": ["1 Associate Dr", "Oneonta, NY 13820", "United States"], "address": "1 Associate Dr", "lat": 42.444970934340574, "lng": -75.08446140749348}, "beenHere": {"lastCheckinExpiredAt": 0}, "stats": {"tipCount": 3, "checkinsCount": 292, "usersCount": 119}, "id": "4bbf2b61ba9776b05da3fec8", "categories": [{"pluralName": "Hospitals", "primary": true, "name": "Hospital", "shortName": "Hospital", "id": "4bf58dd8d48988d196941735", "icon": {"prefix": "https://ss3.4sqi.net/img/categories_v2/building/medical_", "suffix": ".png"}}]}, {"referralId": "v-1490798229", "verified": false, "name": "Margaretville Hospital", "venueRatingBlacklisted": true, "url": "http://www.hahv.org/margaretvillehospital/", "hereNow": {"count": 0, "groups": [], "summary": "Nobody here"}, "specials": {"count": 0, "items": []}, "venueChains": [], "contact": {"facebookName": "HealthAlliance of the Hudson Valley", "twitter": "halliancehudval", "phone": "+18455862631", "facebook": "160851863980487", "formattedPhone": "+1 845-586-2631", "facebookUsername": "healthalliancehv"}, "hasPerk": false, "location": {"distance": 27293, "labeledLatLngs": [{"lat": 42.14681936391631, "lng": -74.64168150706676, "label": "display"}], "city": "Margaretville", "cc": "US", "country": "United States", "postalCode": "12455", "state": "NY", "formattedAddress": ["42084 NY-28", "Margaretville, NY 12455", "United States"], "address": "42084 NY-28", "lat": 42.14681936391631, "lng": -74.64168150706676}, "beenHere": {"lastCheckinExpiredAt": 0}, "stats": {"tipCount": 1, "checkinsCount": 417, "usersCount": 38}, "id": "4de798b2b0fb2165e1a94c48", "categories": [{"pluralName": "Hospitals", "primary": true, "name": "Hospital", "shortName": "Hospital", "id": "4bf58dd8d48988d196941735", "icon": {"prefix": "https://ss3.4sqi.net/img/categories_v2/building/medical_", "suffix": ".png"}}]}, {"referralId": "v-1490798229", "verified": false, "name": "Delaware Valley Hospital", "venueRatingBlacklisted": true, "url": "http://www.uhs.net", "hereNow": {"count": 0, "groups": [], "summary": "Nobody here"}, "specials": {"count": 0, "items": []}, "venueChains": [], "contact": {"phone": "+16078652100", "formattedPhone": "+1 607-865-2100"}, "hasPerk": false, "location": {"distance": 21890, "labeledLatLngs": [{"lat": 42.164641839217225, "lng": -75.1283851876603, "label": "display"}], "city": "Walton", "cc": "US", "country": "United States", "postalCode": "13856", "state": "NY", "formattedAddress": ["2 Titus Pl", "Walton, NY 13856", "United States"], "address": "2 Titus Pl", "lat": 42.164641839217225, "lng": -75.1283851876603}, "beenHere": {"lastCheckinExpiredAt": 0}, "stats": {"tipCount": 0, "checkinsCount": 270, "usersCount": 36}, "id": "4c751810604a3704d39c8149", "categories": [{"pluralName": "Hospitals", "primary": true, "name": "Hospital", "shortName": "Hospital", "id": "4bf58dd8d48988d196941735", "icon": {"prefix": "https://ss3.4sqi.net/img/categories_v2/building/medical_", "suffix": ".png"}}]}, {"referralId": "v-1490798229", "verified": false, "name": "A.O. Fox Hospital", "venueRatingBlacklisted": true, "venueChains": [], "hereNow": {"count": 0, "groups": [], "summary": "Nobody here"}, "specials": {"count": 0, "items": []}, "contact": {"phone": "+16074322000", "formattedPhone": "+1 607-432-2000"}, "hasPerk": false, "location": {"distance": 22407, "labeledLatLngs": [{"lat": 42.45805307141731, "lng": -75.0519626590649, "label": "display"}], "city": "Oneonta", "cc": "US", "country": "United States", "postalCode": "13820", "state": "NY", "formattedAddress": ["1 Norton Ave", "Oneonta, NY 13820", "United States"], "address": "1 Norton Ave", "lat": 42.45805307141731, "lng": -75.0519626590649}, "beenHere": {"lastCheckinExpiredAt": 0}, "stats": {"tipCount": 5, "checkinsCount": 479, "usersCount": 149}, "id": "4b7de0a9f964a5204dd82fe3", "categories": [{"pluralName": "Hospitals", "primary": true, "name": "Hospital", "shortName": "Hospital", "id": "4bf58dd8d48988d196941735", "icon": {"prefix": "https://ss3.4sqi.net/img/categories_v2/building/medical_", "suffix": ".png"}}]}]}}