{"notifications": [{"item": {"unreadCount": 0}, "type": "notificationTray"}], "meta": {"code": 200, "requestId": "58dbc6a44c1f6776f0a7c192"}, "response": {"confident": true, "venues": [{"referralId": "v-1490798244", "verified": false, "name": "Castle Point VA Hospital", "venueRatingBlacklisted": true, "venueChains": [], "hereNow": {"count": 0, "groups": [], "summary": "Nobody here"}, "specials": {"count": 0, "items": []}, "contact": {"phone": "+18458312000", "twitter": "VAHVHCS", "formattedPhone": "+1 845-831-2000"}, "hasPerk": false, "location": {"distance": 6565, "labeledLatLngs": [{"lat": 41.542972095980744, "lng": -73.9632047317608, "label": "display"}], "city": "Castle Point", "cc": "US", "country": "United States", "postalCode": "12511", "state": "NY", "formattedAddress": ["41 Castle Point Rd (btwn Administration Circle & Diane Court)", "Castle Point, NY 12511", "United States"], "crossStreet": "btwn Administration Circle & Diane Court", "address": "41 Castle Point Rd", "lat": 41.542972095980744, "lng": -73.9632047317608}, "beenHere": {"lastCheckinExpiredAt": 0}, "stats": {"tipCount": 4, "checkinsCount": 888, "usersCount": 199}, "id": "4ba90daaf964a5203b073ae3", "categories": [{"pluralName": "Hospitals", "primary": true, "name": "Hospital", "shortName": "Hospital", "id": "4bf58dd8d48988d196941735", "icon": {"prefix": "https://ss3.4sqi.net/img/categories_v2/building/medical_", "suffix": ".png"}}]}, {"referralId": "v-1490798244", "verified": false, "name": "Wingate at Beacon", "venueRatingBlacklisted": true, "venueChains": [], "hereNow": {"count": 0, "groups": [], "summary": "Nobody here"}, "specials": {"count": 0, "items": []}, "contact": {"phone": "+18454401600", "formattedPhone": "+1 845-440-1600"}, "hasPerk": false, "location": {"distance": 10311, "labeledLatLngs": [{"lat": 41.509716780432115, "lng": -73.95563961102182, "label": "display"}], "city": "Beacon", "cc": "US", "country": "United States", "postalCode": "12508", "state": "NY", "formattedAddress": ["10 Hastings Dr", "Beacon, NY 12508", "United States"], "address": "10 Hastings Dr", "lat": 41.509716780432115, "lng": -73.95563961102182}, "beenHere": {"lastCheckinExpiredAt": 0}, "stats": {"tipCount": 1, "checkinsCount": 120, "usersCount": 38}, "id": "4e0cf9a68877936cb3f76e52", "categories": [{"pluralName": "Hospitals", "primary": true, "name": "Hospital", "shortName": "Hospital", "id": "4bf58dd8d48988d196941735", "icon": {"prefix": "https://ss3.4sqi.net/img/categories_v2/building/medical_", "suffix": ".png"}}]}, {"referralId": "v-1490798244", "verified": false, "name": "HRHCare", "venueRatingBlacklisted": true, "venueChains": [], "hereNow": {"count": 0, "groups": [], "summary": "Nobody here"}, "specials": {"count": 0, "items": []}, "contact": {"phone": "+18457907990", "formattedPhone": "+1 845-790-7990"}, "hasPerk": false, "location": {"distance": 9228, "labeledLatLngs": [{"lat": 41.674908, "lng": -73.9358, "label": "display"}], "city": "Poughkeepsie", "cc": "US", "country": "United States", "postalCode": "12601", "state": "NY", "formattedAddress": ["75 Washington St", "Poughkeepsie, NY 12601", "United States"], "address": "75 Washington St", "lat": 41.674908, "lng": -73.9358}, "beenHere": {"lastCheckinExpiredAt": 0}, "stats": {"tipCount": 0, "checkinsCount": 2, "usersCount": 1}, "id": "5883a63ae9dad12feb56c63c", "categories": [{"pluralName": "Hospitals", "primary": true, "name": "Hospital", "shortName": "Hospital", "id": "4bf58dd8d48988d196941735", "icon": {"prefix": "https://ss3.4sqi.net/img/categories_v2/building/medical_", "suffix": ".png"}}]}, {"referralId": "v-1490798244", "verified": false, "name": "Hudson River Psychiatric Center", "venueRatingBlacklisted": true, "venueChains": [], "hereNow": {"count": 0, "groups": [], "summary": "Nobody here"}, "specials": {"count": 0, "items": []}, "contact": {"phone": "+18454528000", "formattedPhone": "+1 845-452-8000"}, "hasPerk": false, "location": {"distance": 16936, "labeledLatLngs": [{"lat": 41.740078, "lng": -73.903827, "label": "display"}], "city": "Poughkeepsie", "cc": "US", "country": "United States", "postalCode": "12601-1078", "state": "NY", "formattedAddress": ["10 Hilltop Ross Circle", "Poughkeepsie, NY 12601-1078", "United States"], "address": "10 Hilltop Ross Circle", "lat": 41.740078, "lng": -73.903827}, "beenHere": {"lastCheckinExpiredAt": 0}, "stats": {"tipCount": 0, "checkinsCount": 65, "usersCount": 49}, "id": "4c448a262d3ec9b612032fae", "categories": [{"pluralName": "Hospitals", "primary": true, "name": "Hospital", "shortName": "Hospital", "id": "4bf58dd8d48988d196941735", "icon": {"prefix": "https://ss3.4sqi.net/img/categories_v2/building/medical_", "suffix": ".png"}}]}, {"referralId": "v-1490798244", "verified": false, "name": "PHC Ambulatory Surgery", "venueRatingBlacklisted": true, "venueChains": [], "hereNow": {"count": 0, "groups": [], "summary": "Nobody here"}, "specials": {"count": 0, "items": []}, "contact": {}, "hasPerk": false, "location": {"distance": 35988, "labeledLatLngs": [{"lat": 41.382515, "lng": -73.663991, "label": "display"}], "city": "Croton Falls", "cc": "US", "country": "United States", "state": "NY", "formattedAddress": ["Croton Falls, NY", "United States"], "lat": 41.382515, "lng": -73.663991}, "beenHere": {"lastCheckinExpiredAt": 0}, "stats": {"tipCount": 0, "checkinsCount": 12, "usersCount": 9}, "id": "533444fb498edc6d34c2e991", "categories": [{"pluralName": "Hospitals", "primary": true, "name": "Hospital", "shortName": "Hospital", "id": "4bf58dd8d48988d196941735", "icon": {"prefix": "https://ss3.4sqi.net/img/categories_v2/building/medical_", "suffix": ".png"}}]}, {"referralId": "v-1490798244", "verified": false, "name": "Pulse-MD Urgent Care", "venueRatingBlacklisted": true, "venueChains": [], "url": "http://pulse-mdurgentcare.com", "hereNow": {"count": 0, "groups": [], "summary": "Nobody here"}, "specials": {"count": 0, "items": []}, "allowMenuUrlEdit": true, "contact": {"phone": "+18452437100", "facebook": "138061423361634", "formattedPhone": "+1 845-243-7100", "facebookName": "Pulse md Urgent care"}, "hasPerk": false, "location": {"distance": 13748, "labeledLatLngs": [{"lat": 41.697791, "lng": -73.882384, "label": "display"}], "city": "Poughkeepsie", "cc": "US", "country": "United States", "postalCode": "12603", "state": "NY", "formattedAddress": ["696 Dutchess Tpke", "Poughkeepsie, NY 12603", "United States"], "address": "696 Dutchess Tpke", "lat": 41.697791, "lng": -73.882384}, "beenHere": {"lastCheckinExpiredAt": 0}, "stats": {"tipCount": 0, "checkinsCount": 1, "usersCount": 1}, "id": "58bfc97dec980f0366a927c9", "categories": [{"pluralName": "Medical Centers", "primary": true, "name": "Medical Center", "shortName": "Medical", "id": "4bf58dd8d48988d104941735", "icon": {"prefix": "https://ss3.4sqi.net/img/categories_v2/building/medical_", "suffix": ".png"}}]}, {"referralId": "v-1490798244", "verified": true, "name": "Vassar Brothers Medical Center", "venueRatingBlacklisted": true, "url": "http://www.health-quest.org/", "storeId": "", "hereNow": {"count": 1, "groups": [{"count": 1, "items": [], "type": "others", "name": "Other people here"}], "summary": "One other person is here"}, "specials": {"count": 0, "items": []}, "venueChains": [], "contact": {"facebookName": "My Health Quest", "twitter": "my_healthquest", "phone": "+18454548500", "facebook": "370851229606186", "formattedPhone": "+1 845-454-8500", "facebookUsername": "myhealthquest"}, "hasPerk": false, "location": {"distance": 11168, "labeledLatLngs": [{"lat": 41.69384080644394, "lng": -73.93584251403809, "label": "display"}], "city": "Poughkeepsie", "cc": "US", "country": "United States", "postalCode": "12601", "state": "NY", "formattedAddress": ["45 Reade Pl", "Poughkeepsie, NY 12601", "United States"], "address": "45 Reade Pl", "lat": 41.69384080644394, "lng": -73.93584251403809}, "venuePage": {"id": "37984717"}, "beenHere": {"lastCheckinExpiredAt": 0}, "stats": {"tipCount": 9, "checkinsCount": 5195, "usersCount": 1221}, "id": "4b8d4c30f964a520c6f232e3", "categories": [{"pluralName": "Hospitals", "primary": true, "name": "Hospital", "shortName": "Hospital", "id": "4bf58dd8d48988d196941735", "icon": {"prefix": "https://ss3.4sqi.net/img/categories_v2/building/medical_", "suffix": ".png"}}]}, {"referralId": "v-1490798244", "verified": false, "name": "Keller Army Community Hospital", "venueRatingBlacklisted": true, "venueChains": [], "hereNow": {"count": 0, "groups": [], "summary": "Nobody here"}, "specials": {"count": 0, "items": []}, "contact": {}, "hasPerk": false, "location": {"distance": 22101, "labeledLatLngs": [{"lat": 41.401511, "lng": -73.976966, "label": "display"}], "city": "West Point", "cc": "US", "country": "United States", "postalCode": "10996", "state": "NY", "formattedAddress": ["900 Washington Rd (United States Military Academy)", "West Point, NY 10996", "United States"], "crossStreet": "United States Military Academy", "address": "900 Washington Rd", "lat": 41.401511, "lng": -73.976966}, "beenHere": {"lastCheckinExpiredAt": 0}, "stats": {"tipCount": 2, "checkinsCount": 1096, "usersCount": 230}, "id": "4bf6ba5a13aed13ade19eaf7", "categories": [{"pluralName": "Hospitals", "primary": true, "name": "Hospital", "shortName": "Hospital", "id": "4bf58dd8d48988d196941735", "icon": {"prefix": "https://ss3.4sqi.net/img/categories_v2/building/medical_", "suffix": ".png"}}]}, {"referralId": "v-1490798244", "verified": false, "name": "St. Luke's Cornwall Hospital", "venueRatingBlacklisted": true, "venueChains": [], "hereNow": {"count": 1, "groups": [{"count": 1, "items": [], "type": "others", "name": "Other people here"}], "summary": "One other person is here"}, "specials": {"count": 0, "items": []}, "contact": {"phone": "+18455614400", "formattedPhone": "+1 845-561-4400"}, "hasPerk": false, "location": {"distance": 11064, "labeledLatLngs": [{"lat": 41.50333868357667, "lng": -74.01429176330566, "label": "display"}], "city": "Newburgh", "cc": "US", "country": "United States", "postalCode": "12550", "state": "NY", "formattedAddress": ["70 Dubois St", "Newburgh, NY 12550", "United States"], "address": "70 Dubois St", "lat": 41.50333868357667, "lng": -74.01429176330566}, "beenHere": {"lastCheckinExpiredAt": 0}, "stats": {"tipCount": 8, "checkinsCount": 3282, "usersCount": 553}, "id": "4b5a8198f964a520a6c828e3", "categories": [{"pluralName": "Hospitals", "primary": true, "name": "Hospital", "shortName": "Hospital", "id": "4bf58dd8d48988d196941735", "icon": {"prefix": "https://ss3.4sqi.net/img/categories_v2/building/medical_", "suffix": ".png"}}]}, {"referralId": "v-1490798244", "verified": false, "name": "Ellenville Regional Hospital", "venueRatingBlacklisted": true, "venueChains": [], "hereNow": {"count": 1, "groups": [{"count": 1, "items": [], "type": "others", "name": "Other people here"}], "summary": "One other person is here"}, "specials": {"count": 0, "items": []}, "contact": {"phone": "+18456476400", "formattedPhone": "+1 845-647-6400"}, "hasPerk": false, "location": {"distance": 36131, "labeledLatLngs": [{"lat": 41.732427792421184, "lng": -74.3800163269043, "label": "display"}], "city": "Ellenville", "cc": "US", "country": "United States", "postalCode": "12428", "state": "NY", "formattedAddress": ["10 Healthy Way", "Ellenville, NY 12428", "United States"], "address": "10 Healthy Way", "lat": 41.732427792421184, "lng": -74.3800163269043}, "beenHere": {"lastCheckinExpiredAt": 0}, "stats": {"tipCount": 0, "checkinsCount": 319, "usersCount": 91}, "id": "4c0bd64f009a0f47eba7ebbf", "categories": [{"pluralName": "Hospitals", "primary": true, "name": "Hospital", "shortName": "Hospital", "id": "4bf58dd8d48988d196941735", "icon": {"prefix": "https://ss3.4sqi.net/img/categories_v2/building/medical_", "suffix": ".png"}}]}, {"referralId": "v-1490798244", "verified": false, "name": "St Luke's Hospital - Cornwall Campus", "venueRatingBlacklisted": true, "venueChains": [], "hereNow": {"count": 0, "groups": [], "summary": "Nobody here"}, "specials": {"count": 0, "items": []}, "contact": {"phone": "+18455347711", "formattedPhone": "+1 845-534-7711"}, "hasPerk": false, "location": {"distance": 18993, "labeledLatLngs": [{"lat": 41.435184754064444, "lng": -74.04225905273663, "label": "display"}], "city": "Town of Cornwall", "cc": "US", "country": "United States", "postalCode": "12553", "state": "NY", "formattedAddress": ["Laurel Ave (US 9W)", "Town of Cornwall, NY 12553", "United States"], "crossStreet": "US 9W", "address": "Laurel Ave", "lat": 41.435184754064444, "lng": -74.04225905273663}, "beenHere": {"lastCheckinExpiredAt": 0}, "stats": {"tipCount": 3, "checkinsCount": 1225, "usersCount": 300}, "id": "4be24246d27a20a1f35e8f5b", "categories": [{"pluralName": "Hospitals", "primary": true, "name": "Hospital", "shortName": "Hospital", "id": "4bf58dd8d48988d196941735", "icon": {"prefix": "https://ss3.4sqi.net/img/categories_v2/building/medical_", "suffix": ".png"}}]}, {"referralId": "v-1490798244", "verified": true, "name": "Hudson Valley Hospital Center", "venueRatingBlacklisted": true, "venueChains": [], "url": "http://www.hvhc.org", "storeId": "", "hereNow": {"count": 0, "groups": [], "summary": "Nobody here"}, "specials": {"count": 0, "items": []}, "allowMenuUrlEdit": true, "contact": {"facebookName": "NewYork-Presbyterian Hudson Valley Hospital", "twitter": "hudsonvlyhosp", "phone": "+19147379000", "facebook": "118666213817", "formattedPhone": "+1 914-737-9000", "facebookUsername": "HudsonValleyHospital"}, "hasPerk": false, "location": {"distance": 35051, "labeledLatLngs": [{"lat": 41.29246940284087, "lng": -73.8931615460297, "label": "display"}], "city": "Cortlandt Manor", "cc": "US", "country": "United States", "postalCode": "10567", "state": "NY", "formattedAddress": ["1980 Crompond Rd", "Cortlandt Manor, NY 10567", "United States"], "address": "1980 Crompond Rd", "lat": 41.29246940284087, "lng": -73.8931615460297}, "venuePage": {"id": "69826723"}, "beenHere": {"lastCheckinExpiredAt": 0}, "stats": {"tipCount": 13, "checkinsCount": 4220, "usersCount": 706}, "id": "4b9dfe76f964a520afc536e3", "categories": [{"pluralName": "Hospitals", "primary": true, "name": "Hospital", "shortName": "Hospital", "id": "4bf58dd8d48988d196941735", "icon": {"prefix": "https://ss3.4sqi.net/img/categories_v2/building/medical_", "suffix": ".png"}}]}, {"referralId": "v-1490798244", "verified": false, "name": "MidHudson Regional Hospital", "venueRatingBlacklisted": true, "venueChains": [], "hereNow": {"count": 0, "groups": [], "summary": "Nobody here"}, "specials": {"count": 0, "items": []}, "contact": {"phone": "+18454835000", "formattedPhone": "+1 845-483-5000"}, "hasPerk": false, "location": {"distance": 13964, "labeledLatLngs": [{"lat": 41.7180910131259, "lng": -73.92668507963549, "label": "display"}], "city": "Poughkeepsie", "cc": "US", "country": "United States", "postalCode": "12601", "state": "NY", "formattedAddress": ["241 North Rd", "Poughkeepsie, NY 12601", "United States"], "address": "241 North Rd", "lat": 41.7180910131259, "lng": -73.92668507963549}, "beenHere": {"lastCheckinExpiredAt": 0}, "stats": {"tipCount": 3, "checkinsCount": 2152, "usersCount": 565}, "id": "4bba2e1c3db7b7133e00239a", "categories": [{"pluralName": "Hospitals", "primary": true, "name": "Hospital", "shortName": "Hospital", "id": "4bf58dd8d48988d196941735", "icon": {"prefix": "https://ss3.4sqi.net/img/categories_v2/building/medical_", "suffix": ".png"}}]}, {"referralId": "v-1490798244", "verified": true, "name": "Putnam Hospital", "venueRatingBlacklisted": true, "url": "http://www.health-quest.org/", "storeId": "", "hereNow": {"count": 0, "groups": [], "summary": "Nobody here"}, "specials": {"count": 0, "items": []}, "venueChains": [], "contact": {"phone": "+18452795711", "formattedPhone": "+1 845-279-5711"}, "hasPerk": false, "location": {"distance": 36001, "labeledLatLngs": [{"lat": 41.382767984393055, "lng": -73.66348257491816, "label": "display"}], "city": "Carmel", "cc": "US", "country": "United States", "postalCode": "10512", "state": "NY", "formattedAddress": ["670 Stoneleigh Ave", "Carmel, NY 10512", "United States"], "address": "670 Stoneleigh Ave", "lat": 41.382767984393055, "lng": -73.66348257491816}, "venuePage": {"id": "37984685"}, "beenHere": {"lastCheckinExpiredAt": 0}, "stats": {"tipCount": 4, "checkinsCount": 4610, "usersCount": 835}, "id": "4bc5e538d35d9c74adc1e13a", "categories": [{"pluralName": "Hospitals", "primary": true, "name": "Hospital", "shortName": "Hospital", "id": "4bf58dd8d48988d196941735", "icon": {"prefix": "https://ss3.4sqi.net/img/categories_v2/building/medical_", "suffix": ".png"}}]}, {"referralId": "v-1490798244", "verified": false, "name": "VCA Animal Specialty and Emergency Center", "venueRatingBlacklisted": true, "venueChains": [], "url": "http://www.vcaspecialtyvets.com/animal-specialty-emergency-center", "hereNow": {"count": 0, "groups": [], "summary": "Nobody here"}, "specials": {"count": 0, "items": []}, "allowMenuUrlEdit": true, "contact": {"phone": "+18457959122", "twitter": "vcapethealth", "formattedPhone": "+1 845-795-9122"}, "hasPerk": false, "location": {"distance": 6619, "labeledLatLngs": [{"lat": 41.57606, "lng": -73.910554, "label": "display"}], "city": "Wappingers Falls", "cc": "US", "country": "United States", "postalCode": "12590", "state": "NY", "formattedAddress": ["1285 US Route 9", "Wappingers Falls, NY 12590", "United States"], "address": "1285 US Route 9", "lat": 41.57606, "lng": -73.910554}, "beenHere": {"lastCheckinExpiredAt": 0}, "stats": {"tipCount": 0, "checkinsCount": 3, "usersCount": 3}, "id": "55ea4bb7498ed75064f05c6e", "categories": [{"pluralName": "Veterinarians", "primary": true, "name": "Veterinarian", "shortName": "Veterinarians", "id": "4d954af4a243a5684765b473", "icon": {"prefix": "https://ss3.4sqi.net/img/categories_v2/building/medical_veterinarian_", "suffix": ".png"}}]}, {"referralId": "v-1490798244", "verified": false, "name": "St. Lukes Cornwall Hospital", "venueRatingBlacklisted": true, "url": "http://www.stlukescornwallhospital.org", "hereNow": {"count": 0, "groups": [], "summary": "Nobody here"}, "specials": {"count": 0, "items": []}, "venueChains": [], "contact": {"phone": "+18455614400", "twitter": "slchospital", "formattedPhone": "+1 845-561-4400"}, "hasPerk": false, "location": {"distance": 14274, "labeledLatLngs": [{"lat": 41.4855441853041, "lng": -74.06057184285899, "label": "display"}], "city": "Newburgh", "cc": "US", "country": "United States", "postalCode": "12550", "state": "NY", "formattedAddress": ["70 Dubois St (at Carter St)", "Newburgh, NY 12550", "United States"], "crossStreet": "at Carter St", "address": "70 Dubois St", "lat": 41.4855441853041, "lng": -74.06057184285899}, "beenHere": {"lastCheckinExpiredAt": 0}, "stats": {"tipCount": 1, "checkinsCount": 8, "usersCount": 4}, "id": "50075073e4b09bc7598dc51a", "categories": [{"pluralName": "Hospitals", "primary": true, "name": "Hospital", "shortName": "Hospital", "id": "4bf58dd8d48988d196941735", "icon": {"prefix": "https://ss3.4sqi.net/img/categories_v2/building/medical_", "suffix": ".png"}}]}, {"referralId": "v-1490798244", "verified": false, "name": "Dr Zhaohui Meng", "venueRatingBlacklisted": true, "venueChains": [], "hereNow": {"count": 0, "groups": [], "summary": "Nobody here"}, "specials": {"count": 0, "items": []}, "contact": {"phone": "+18457971610", "formattedPhone": "+1 845-797-1610"}, "hasPerk": false, "location": {"distance": 9343, "labeledLatLngs": [{"lat": 41.64107261130464, "lng": -73.88541162014008, "label": "display"}], "city": "Poughkeepsie", "cc": "US", "country": "United States", "postalCode": "12603", "state": "NY", "formattedAddress": ["8 Autumn Dr", "Poughkeepsie, NY 12603", "United States"], "address": "8 Autumn Dr", "lat": 41.64107261130464, "lng": -73.88541162014008}, "beenHere": {"lastCheckinExpiredAt": 0}, "stats": {"tipCount": 0, "checkinsCount": 0, "usersCount": 0}, "id": "561e98c7498ee88c9903ba0f", "categories": [{"pluralName": "Hospitals", "primary": true, "name": "Hospital", "shortName": "Hospital", "id": "4bf58dd8d48988d196941735", "icon": {"prefix": "https://ss3.4sqi.net/img/categories_v2/building/medical_", "suffix": ".png"}}]}, {"referralId": "v-1490798244", "verified": false, "name": "Putnam Hospital Helipad", "venueRatingBlacklisted": true, "venueChains": [], "hereNow": {"count": 0, "groups": [], "summary": "Nobody here"}, "specials": {"count": 0, "items": []}, "contact": {}, "hasPerk": false, "location": {"distance": 35819, "labeledLatLngs": [{"lat": 41.385556, "lng": -73.663063, "label": "display"}], "cc": "US", "country": "United States", "state": "New York", "formattedAddress": ["New York", "United States"], "lat": 41.385556, "lng": -73.663063}, "beenHere": {"lastCheckinExpiredAt": 0}, "stats": {"tipCount": 0, "checkinsCount": 2, "usersCount": 1}, "id": "51894ea5498e2f7fc9243612", "categories": [{"pluralName": "Hospitals", "primary": true, "name": "Hospital", "shortName": "Hospital", "id": "4bf58dd8d48988d196941735", "icon": {"prefix": "https://ss3.4sqi.net/img/categories_v2/building/medical_", "suffix": ".png"}}]}, {"referralId": "v-1490798244", "verified": false, "name": "Orange Regional Medical Group - Monroe", "venueRatingBlacklisted": true, "venueChains": [], "url": "http://www.ormc.org/ormg/orange-regional-medical-group.aspx", "hereNow": {"count": 0, "groups": [], "summary": "Nobody here"}, "specials": {"count": 0, "items": []}, "allowMenuUrlEdit": true, "contact": {"phone": "+18453337830", "formattedPhone": "+1 845-333-7830"}, "hasPerk": false, "location": {"distance": 35281, "labeledLatLngs": [{"lat": 41.31824659999999, "lng": -74.1770066, "label": "display"}], "city": "Monroe", "cc": "US", "country": "United States", "postalCode": "10950", "state": "NY", "formattedAddress": ["475 State Route 17M", "Monroe, NY 10950", "United States"], "address": "475 State Route 17M", "lat": 41.31824659999999, "lng": -74.1770066}, "beenHere": {"lastCheckinExpiredAt": 0}, "stats": {"tipCount": 0, "checkinsCount": 0, "usersCount": 0}, "id": "57dff141498e56d52de3225b", "categories": [{"pluralName": "Doctor's Offices", "primary": true, "name": "Doctor's Office", "shortName": "Doctor's Office", "id": "4bf58dd8d48988d177941735", "icon": {"prefix": "https://ss3.4sqi.net/img/categories_v2/building/medical_doctorsoffice_", "suffix": ".png"}}]}, {"referralId": "v-1490798244", "verified": false, "name": "Dr Kurt C Kish", "venueRatingBlacklisted": true, "url": "http://dutchesscountychiropractors.com", "hereNow": {"count": 0, "groups": [], "summary": "Nobody here"}, "specials": {"count": 0, "items": []}, "venueChains": [], "contact": {"phone": "+18454854488", "formattedPhone": "+1 845-485-4488"}, "hasPerk": false, "location": {"distance": 14384, "labeledLatLngs": [{"lat": 41.66821548411553, "lng": -73.83649349212646, "label": "display"}], "city": "Poughkeepsie", "cc": "US", "country": "United States", "postalCode": "12603", "state": "NY", "formattedAddress": ["748 Freedom Plains Rd", "Poughkeepsie, NY 12603", "United States"], "address": "748 Freedom Plains Rd", "lat": 41.66821548411553, "lng": -73.83649349212646}, "beenHere": {"lastCheckinExpiredAt": 0}, "stats": {"tipCount": 2, "checkinsCount": 0, "usersCount": 0}, "id": "57274d22498e434556838f16", "categories": [{"pluralName": "Hospitals", "primary": true, "name": "Hospital", "shortName": "Hospital", "id": "4bf58dd8d48988d196941735", "icon": {"prefix": "https://ss3.4sqi.net/img/categories_v2/building/medical_", "suffix": ".png"}}]}, {"referralId": "v-1490798244", "verified": false, "name": "Room 347", "venueRatingBlacklisted": true, "venueChains": [], "hereNow": {"count": 0, "groups": [], "summary": "Nobody here"}, "specials": {"count": 0, "items": []}, "contact": {}, "hasPerk": false, "location": {"distance": 8759, "labeledLatLngs": [{"lat": 41.66879, "lng": -73.932203, "label": "display"}], "city": "Poughkeepsie", "cc": "US", "country": "United States", "state": "NY", "formattedAddress": ["Poughkeepsie, NY", "United States"], "lat": 41.66879, "lng": -73.932203}, "beenHere": {"lastCheckinExpiredAt": 0}, "stats": {"tipCount": 0, "checkinsCount": 3, "usersCount": 1}, "id": "4e2efd26b61c88c3a7935ab7", "categories": [{"pluralName": "Hospitals", "primary": true, "name": "Hospital", "shortName": "Hospital", "id": "4bf58dd8d48988d196941735", "icon": {"prefix": "https://ss3.4sqi.net/img/categories_v2/building/medical_", "suffix": ".png"}}]}, {"referralId": "v-1490798244", "verified": false, "name": "Saint Francis Hospital", "venueRatingBlacklisted": true, "venueChains": [], "hereNow": {"count": 0, "groups": [], "summary": "Nobody here"}, "specials": {"count": 0, "items": []}, "contact": {}, "hasPerk": false, "location": {"distance": 14402, "labeledLatLngs": [{"lat": 41.72192203604978, "lng": -73.92538765006168, "label": "display"}], "city": "Poughkeepsie", "cc": "US", "country": "United States", "postalCode": "12601", "state": "NY", "formattedAddress": ["243 North Rd", "Poughkeepsie, NY 12601", "United States"], "address": "243 North Rd", "lat": 41.72192203604978, "lng": -73.92538765006168}, "beenHere": {"lastCheckinExpiredAt": 0}, "stats": {"tipCount": 0, "checkinsCount": 21, "usersCount": 17}, "id": "4edf807729c25233b5cbbd02", "categories": [{"pluralName": "Hospitals", "primary": true, "name": "Hospital", "shortName": "Hospital", "id": "4bf58dd8d48988d196941735", "icon": {"prefix": "https://ss3.4sqi.net/img/categories_v2/building/medical_", "suffix": ".png"}}]}, {"referralId": "v-1490798244", "verified": false, "name": "georges first aid", "venueRatingBlacklisted": true, "venueChains": [], "hereNow": {"count": 0, "groups": [], "summary": "Nobody here"}, "specials": {"count": 0, "items": []}, "contact": {}, "hasPerk": false, "location": {"distance": 22113, "labeledLatLngs": [{"lat": 41.559969, "lng": -73.723219, "label": "display"}], "city": "East Fishkill", "cc": "US", "country": "United States", "state": "NY", "formattedAddress": ["142 Devons Farm Road", "East Fishkill, NY", "United States"], "address": "142 Devons Farm Road", "lat": 41.559969, "lng": -73.723219}, "beenHere": {"lastCheckinExpiredAt": 0}, "stats": {"tipCount": 0, "checkinsCount": 1, "usersCount": 1}, "id": "52c60f14498e3dd7299e670b", "categories": [{"pluralName": "Hospitals", "primary": true, "name": "Hospital", "shortName": "Hospital", "id": "4bf58dd8d48988d196941735", "icon": {"prefix": "https://ss3.4sqi.net/img/categories_v2/building/medical_", "suffix": ".png"}}]}, {"referralId": "v-1490798244", "verified": false, "name": "RCU", "venueRatingBlacklisted": true, "venueChains": [], "hereNow": {"count": 0, "groups": [], "summary": "Nobody here"}, "specials": {"count": 0, "items": []}, "contact": {}, "hasPerk": false, "location": {"distance": 11206, "labeledLatLngs": [{"lat": 41.6941032409668, "lng": -73.93546295166016, "label": "display"}], "city": "Poughkeepsie", "cc": "US", "country": "United States", "postalCode": "12601", "state": "NY", "formattedAddress": ["45 Reade Pl", "Poughkeepsie, NY 12601", "United States"], "address": "45 Reade Pl", "lat": 41.6941032409668, "lng": -73.93546295166016}, "beenHere": {"lastCheckinExpiredAt": 0}, "stats": {"tipCount": 0, "checkinsCount": 2, "usersCount": 1}, "id": "52ec166911d29300c5a85aa4", "categories": [{"pluralName": "Hospitals", "primary": true, "name": "Hospital", "shortName": "Hospital", "id": "4bf58dd8d48988d196941735", "icon": {"prefix": "https://ss3.4sqi.net/img/categories_v2/building/medical_", "suffix": ".png"}}]}, {"referralId": "v-1490798244", "verified": false, "name": "TransCare Ambulance - Post 39", "venueRatingBlacklisted": true, "venueChains": [], "hereNow": {"count": 0, "groups": [], "summary": "Nobody here"}, "specials": {"count": 0, "items": []}, "allowMenuUrlEdit": true, "contact": {}, "hasPerk": false, "location": {"distance": 36077, "labeledLatLngs": [{"lat": 41.38263104484452, "lng": -73.66241336708948, "label": "display"}], "city": "Carmel", "cc": "US", "country": "United States", "postalCode": "10512", "state": "NY", "formattedAddress": ["670 Stoneleigh Ave (btwn Vista on the Lake & Drewsville Rd)", "Carmel, NY 10512", "United States"], "crossStreet": "btwn Vista on the Lake & Drewsville Rd", "address": "670 Stoneleigh Ave", "lat": 41.38263104484452, "lng": -73.66241336708948}, "beenHere": {"lastCheckinExpiredAt": 0}, "stats": {"tipCount": 0, "checkinsCount": 145, "usersCount": 13}, "id": "4e677136b9939a72b30092d6", "categories": [{"pluralName": "Medical Centers", "primary": true, "name": "Medical Center", "shortName": "Medical", "id": "4bf58dd8d48988d104941735", "icon": {"prefix": "https://ss3.4sqi.net/img/categories_v2/building/medical_", "suffix": ".png"}}]}, {"referralId": "v-1490798244", "verified": false, "name": "Pros", "venueRatingBlacklisted": true, "venueChains": [], "hereNow": {"count": 0, "groups": [], "summary": "Nobody here"}, "specials": {"count": 0, "items": []}, "contact": {}, "hasPerk": false, "location": {"distance": 13884, "labeledLatLngs": [{"lat": 41.717435, "lng": -73.927099, "label": "display"}], "city": "Poughkeepsie", "cc": "US", "country": "United States", "postalCode": "12601", "state": "NY", "formattedAddress": ["Poughkeepsie, NY 12601", "United States"], "lat": 41.717435, "lng": -73.927099}, "beenHere": {"lastCheckinExpiredAt": 0}, "stats": {"tipCount": 0, "checkinsCount": 4, "usersCount": 2}, "id": "4ff6dde4e4b036acfaac5fac", "categories": [{"pluralName": "Hospitals", "primary": true, "name": "Hospital", "shortName": "Hospital", "id": "4bf58dd8d48988d196941735", "icon": {"prefix": "https://ss3.4sqi.net/img/categories_v2/building/medical_", "suffix": ".png"}}]}, {"referralId": "v-1490798244", "verified": false, "name": "Zeus The Zombie Professional", "venueRatingBlacklisted": true, "venueChains": [], "hereNow": {"count": 0, "groups": [], "summary": "Nobody here"}, "specials": {"count": 0, "items": []}, "contact": {}, "hasPerk": false, "location": {"distance": 8512, "labeledLatLngs": [{"lat": 41.666841, "lng": -73.933641, "label": "display"}], "cc": "US", "country": "United States", "state": "New York", "formattedAddress": ["New York", "United States"], "lat": 41.666841, "lng": -73.933641}, "beenHere": {"lastCheckinExpiredAt": 0}, "stats": {"tipCount": 0, "checkinsCount": 1, "usersCount": 1}, "id": "51452757e4b0910b6009fc3a", "categories": [{"pluralName": "Hospitals", "primary": true, "name": "Hospital", "shortName": "Hospital", "id": "4bf58dd8d48988d196941735", "icon": {"prefix": "https://ss3.4sqi.net/img/categories_v2/building/medical_", "suffix": ".png"}}]}, {"referralId": "v-1490798244", "verified": false, "name": "Vassar Hospital ICU", "venueRatingBlacklisted": true, "venueChains": [], "hereNow": {"count": 0, "groups": [], "summary": "Nobody here"}, "specials": {"count": 0, "items": []}, "contact": {}, "hasPerk": false, "location": {"distance": 11159, "labeledLatLngs": [{"lat": 41.69372861429721, "lng": -73.93574962214448, "label": "display"}], "city": "Poughkeepsie", "cc": "US", "country": "United States", "postalCode": "12601", "state": "NY", "formattedAddress": ["Poughkeepsie, NY 12601", "United States"], "lat": 41.69372861429721, "lng": -73.93574962214448}, "beenHere": {"lastCheckinExpiredAt": 0}, "stats": {"tipCount": 0, "checkinsCount": 17, "usersCount": 7}, "id": "51093c76e4b08ba57285fe19", "categories": [{"pluralName": "Hospitals", "primary": true, "name": "Hospital", "shortName": "Hospital", "id": "4bf58dd8d48988d196941735", "icon": {"prefix": "https://ss3.4sqi.net/img/categories_v2/building/medical_", "suffix": ".png"}}]}, {"referralId": "v-1490798244", "verified": false, "name": "NCU", "venueRatingBlacklisted": true, "venueChains": [], "hereNow": {"count": 0, "groups": [], "summary": "Nobody here"}, "specials": {"count": 0, "items": []}, "contact": {}, "hasPerk": false, "location": {"distance": 11210, "labeledLatLngs": [{"lat": 41.694129, "lng": -73.935427, "label": "display"}], "city": "Poughkeepsie", "cc": "US", "country": "United States", "state": "NY", "formattedAddress": ["Poughkeepsie, NY", "United States"], "lat": 41.694129, "lng": -73.935427}, "beenHere": {"lastCheckinExpiredAt": 0}, "stats": {"tipCount": 0, "checkinsCount": 9, "usersCount": 2}, "id": "5176a825e4b06f861f748f5c", "categories": [{"pluralName": "Hospitals", "primary": true, "name": "Hospital", "shortName": "Hospital", "id": "4bf58dd8d48988d196941735", "icon": {"prefix": "https://ss3.4sqi.net/img/categories_v2/building/medical_", "suffix": ".png"}}]}, {"referralId": "v-1490798244", "verified": false, "name": "The Hangover", "venueRatingBlacklisted": true, "venueChains": [], "hereNow": {"count": 0, "groups": [], "summary": "Nobody here"}, "specials": {"count": 0, "items": []}, "contact": {}, "hasPerk": false, "location": {"distance": 13097, "labeledLatLngs": [{"lat": 41.717288, "lng": -73.97086, "label": "display"}], "city": "Highland", "cc": "US", "country": "United States", "postalCode": "12528", "state": "NY", "formattedAddress": ["Highland, NY 12528", "United States"], "lat": 41.717288, "lng": -73.97086}, "beenHere": {"lastCheckinExpiredAt": 0}, "stats": {"tipCount": 0, "checkinsCount": 3, "usersCount": 1}, "id": "4f3835cbe4b0edf91dcf3ba6", "categories": [{"pluralName": "Hospitals", "primary": true, "name": "Hospital", "shortName": "Hospital", "id": "4bf58dd8d48988d196941735", "icon": {"prefix": "https://ss3.4sqi.net/img/categories_v2/building/medical_", "suffix": ".png"}}]}]}}