{"notifications": [{"item": {"unreadCount": 0}, "type": "notificationTray"}], "meta": {"code": 200, "requestId": "58dbc6a54434b977cee387fa"}, "response": {"confident": true, "venues": [{"referralId": "v-1490798245", "verified": false, "name": "Bassett Healthcare", "venueRatingBlacklisted": true, "venueChains": [], "hereNow": {"count": 0, "groups": [], "summary": "Nobody here"}, "specials": {"count": 0, "items": []}, "contact": {"phone": "+15188277730", "formattedPhone": "+1 518-827-7730"}, "hasPerk": false, "location": {"distance": 304, "labeledLatLngs": [{"lat": 42.59776177135103, "lng": -74.33546624441985, "label": "display"}], "city": "Middleburgh", "cc": "US", "country": "United States", "state": "NY", "formattedAddress": ["109 Baker Ave", "Middleburgh, NY", "United States"], "address": "109 Baker Ave", "lat": 42.59776177135103, "lng": -74.33546624441985}, "beenHere": {"lastCheckinExpiredAt": 0}, "stats": {"tipCount": 0, "checkinsCount": 10, "usersCount": 7}, "id": "4b9e9079f964a52098ef36e3", "categories": [{"pluralName": "Hospitals", "primary": true, "name": "Hospital", "shortName": "Hospital", "id": "4bf58dd8d48988d196941735", "icon": {"prefix": "https://ss3.4sqi.net/img/categories_v2/building/medical_", "suffix": ".png"}}]}, {"referralId": "v-1490798245", "verified": false, "name": "Cobleskill Regional Hospital", "venueRatingBlacklisted": true, "venueChains": [], "hereNow": {"count": 0, "groups": [], "summary": "Nobody here"}, "specials": {"count": 0, "items": []}, "contact": {"phone": "+15182543456", "formattedPhone": "+1 518-254-3456"}, "hasPerk": false, "location": {"distance": 15564, "labeledLatLngs": [{"lat": 42.68679403828721, "lng": -74.48234772710046, "label": "display"}], "city": "Cobleskill", "cc": "US", "country": "United States", "postalCode": "12043", "state": "NY", "formattedAddress": ["178 Grandview Dr", "Cobleskill, NY 12043", "United States"], "address": "178 Grandview Dr", "lat": 42.68679403828721, "lng": -74.48234772710046}, "beenHere": {"lastCheckinExpiredAt": 0}, "stats": {"tipCount": 1, "checkinsCount": 150, "usersCount": 66}, "id": "4b7de88af964a5205dd92fe3", "categories": [{"pluralName": "Hospitals", "primary": true, "name": "Hospital", "shortName": "Hospital", "id": "4bf58dd8d48988d196941735", "icon": {"prefix": "https://ss3.4sqi.net/img/categories_v2/building/medical_", "suffix": ".png"}}]}, {"referralId": "v-1490798245", "verified": false, "name": "AIDONE EYECARE", "venueRatingBlacklisted": true, "venueChains": [], "hereNow": {"count": 0, "groups": [], "summary": "Nobody here"}, "specials": {"count": 0, "items": []}, "contact": {"phone": "+5182342020", "formattedPhone": "+51 82 342020"}, "hasPerk": false, "location": {"distance": 15016, "labeledLatLngs": [{"lat": 42.67800274159152, "lng": -74.48294878005981, "label": "display"}], "city": "Cobleskill", "cc": "US", "country": "United States", "postalCode": "12043", "state": "NY", "formattedAddress": ["980 E Main St Ste Dunkin", "Cobleskill, NY 12043", "United States"], "address": "980 E Main St Ste Dunkin", "lat": 42.67800274159152, "lng": -74.48294878005981}, "beenHere": {"lastCheckinExpiredAt": 0}, "stats": {"tipCount": 2, "checkinsCount": 0, "usersCount": 0}, "id": "55181376498eb8bdbab77c95", "categories": [{"pluralName": "Hospitals", "primary": true, "name": "Hospital", "shortName": "Hospital", "id": "4bf58dd8d48988d196941735", "icon": {"prefix": "https://ss3.4sqi.net/img/categories_v2/building/medical_", "suffix": ".png"}}]}]}}