{"notifications": [{"item": {"unreadCount": 0}, "type": "notificationTray"}], "meta": {"code": 200, "requestId": "58cb01e36a607125f34f0af3"}, "response": {"confident": true, "venues": [{"referralId": "v-1489699300", "verified": false, "name": "Ashland Community Hospital", "venueRatingBlacklisted": true, "venueChains": [], "hereNow": {"count": 0, "groups": [], "summary": "Nobody here"}, "specials": {"count": 0, "items": []}, "contact": {"phone": "+15412014000", "formattedPhone": "+1 541-201-4000"}, "hasPerk": false, "location": {"distance": 267, "labeledLatLngs": [{"lat": 42.19771013917632, "lng": -122.71567850943119, "label": "display"}], "city": "Ashland", "cc": "US", "country": "United States", "postalCode": "97520", "state": "OR", "formattedAddress": ["280 Maple St", "Ashland, OR 97520", "United States"], "address": "280 Maple St", "lat": 42.19771013917632, "lng": -122.71567850943119}, "beenHere": {"lastCheckinExpiredAt": 0}, "stats": {"tipCount": 0, "checkinsCount": 1, "usersCount": 1}, "id": "4cc9c9d05c7e8cfad7094766", "categories": [{"pluralName": "Hospitals", "primary": true, "name": "Hospital", "shortName": "Hospital", "id": "4bf58dd8d48988d196941735", "icon": {"prefix": "https://ss3.4sqi.net/img/categories_v2/building/medical_", "suffix": ".png"}}]}, {"referralId": "v-1489699300", "verified": true, "name": "Asante Ashland Community Hospital", "venueRatingBlacklisted": true, "url": "http://www.asante.org/about-us/hospitals/ashland/", "hereNow": {"count": 0, "groups": [], "summary": "Nobody here"}, "specials": {"count": 0, "items": []}, "venueChains": [], "contact": {"phone": "+15412014000", "formattedPhone": "+1 541-201-4000"}, "hasPerk": false, "location": {"distance": 954, "labeledLatLngs": [{"lat": 42.20593783798906, "lng": -122.72501110883368, "label": "display"}], "city": "Ashland", "cc": "US", "country": "United States", "postalCode": "97520", "state": "OR", "formattedAddress": ["280 Maple St", "Ashland, OR 97520", "United States"], "address": "280 Maple St", "lat": 42.20593783798906, "lng": -122.72501110883368}, "venuePage": {"id": "77484832"}, "beenHere": {"lastCheckinExpiredAt": 0}, "stats": {"tipCount": 3, "checkinsCount": 220, "usersCount": 72}, "id": "4babe09af964a5206dd13ae3", "categories": [{"pluralName": "Hospitals", "primary": true, "name": "Hospital", "shortName": "Hospital", "id": "4bf58dd8d48988d196941735", "icon": {"prefix": "https://ss3.4sqi.net/img/categories_v2/building/medical_", "suffix": ".png"}}]}, {"referralId": "v-1489699300", "verified": false, "name": "VA SORCC", "venueRatingBlacklisted": true, "venueChains": [], "hereNow": {"count": 0, "groups": [], "summary": "Nobody here"}, "specials": {"count": 0, "items": []}, "contact": {}, "hasPerk": false, "location": {"distance": 28964, "labeledLatLngs": [{"lat": 42.44413808616569, "lng": -122.8383882436779, "label": "display"}], "city": "White City", "cc": "US", "country": "United States", "postalCode": "97503", "state": "OR", "formattedAddress": ["hwy 62", "White City, OR 97503", "United States"], "address": "hwy 62", "lat": 42.44413808616569, "lng": -122.8383882436779}, "beenHere": {"lastCheckinExpiredAt": 0}, "stats": {"tipCount": 1, "checkinsCount": 135, "usersCount": 42}, "id": "4cd054987561236a3fad2bf3", "categories": [{"pluralName": "Hospitals", "primary": true, "name": "Hospital", "shortName": "Hospital", "id": "4bf58dd8d48988d196941735", "icon": {"prefix": "https://ss3.4sqi.net/img/categories_v2/building/medical_", "suffix": ".png"}}]}, {"referralId": "v-1489699300", "verified": false, "name": "Providence Medford Medical Center", "venueRatingBlacklisted": true, "venueChains": [], "hereNow": {"count": 0, "groups": [], "summary": "Nobody here"}, "specials": {"count": 0, "items": []}, "contact": {"phone": "+15417325000", "formattedPhone": "+1 541-732-5000"}, "hasPerk": false, "location": {"distance": 19725, "labeledLatLngs": [{"lat": 42.339919340814085, "lng": -122.86360822756615, "label": "display"}], "city": "Medford", "cc": "US", "country": "United States", "postalCode": "97504", "state": "OR", "formattedAddress": ["1111 Crater Lake Ave (at E McAndrews Rd.)", "Medford, OR 97504", "United States"], "crossStreet": "at E McAndrews Rd.", "address": "1111 Crater Lake Ave", "lat": 42.339919340814085, "lng": -122.86360822756615}, "beenHere": {"lastCheckinExpiredAt": 0}, "stats": {"tipCount": 1, "checkinsCount": 710, "usersCount": 187}, "id": "4b5e09a0f964a5205c7a29e3", "categories": [{"pluralName": "Hospitals", "primary": true, "name": "Hospital", "shortName": "Hospital", "id": "4bf58dd8d48988d196941735", "icon": {"prefix": "https://ss3.4sqi.net/img/categories_v2/building/medical_", "suffix": ".png"}}]}, {"referralId": "v-1489699300", "verified": true, "name": "Asante Rogue Regional Medical Center", "venueRatingBlacklisted": true, "venueChains": [], "url": "https://www.asante.org/Locations/location-detail/?id=1018", "storeId": "", "hereNow": {"count": 0, "groups": [], "summary": "Nobody here"}, "specials": {"count": 0, "items": []}, "allowMenuUrlEdit": true, "contact": {"facebookName": "Asante Rogue Regional Medical Center", "twitter": "rvmedicalcenter", "phone": "+15417897000", "facebook": "253863476633", "formattedPhone": "+1 541-789-7000", "facebookUsername": "AsanteRogueRegionalMedicalCenter"}, "hasPerk": false, "location": {"distance": 16194, "labeledLatLngs": [{"lat": 42.31739262399579, "lng": -122.8327655370888, "label": "display"}], "city": "Medford", "cc": "US", "country": "United States", "postalCode": "97504", "state": "OR", "formattedAddress": ["2825 E Barnett Rd", "Medford, OR 97504", "United States"], "address": "2825 E Barnett Rd", "lat": 42.31739262399579, "lng": -122.8327655370888}, "venuePage": {"id": "34173298"}, "beenHere": {"lastCheckinExpiredAt": 0}, "stats": {"tipCount": 2, "checkinsCount": 2196, "usersCount": 324}, "id": "4bba54e453649c745de748fb", "categories": [{"pluralName": "Hospitals", "primary": true, "name": "Hospital", "shortName": "Hospital", "id": "4bf58dd8d48988d196941735", "icon": {"prefix": "https://ss3.4sqi.net/img/categories_v2/building/medical_", "suffix": ".png"}}]}, {"referralId": "v-1489699300", "verified": false, "name": "Ashland  Community Hospital", "venueRatingBlacklisted": true, "venueChains": [], "hereNow": {"count": 0, "groups": [], "summary": "Nobody here"}, "specials": {"count": 0, "items": []}, "contact": {"phone": "+15412014000", "formattedPhone": "+1 541-201-4000"}, "hasPerk": false, "location": {"distance": 1001, "labeledLatLngs": [{"lat": 42.206459, "lng": -122.725128, "label": "display"}], "city": "Ashland", "cc": "US", "country": "United States", "postalCode": "97520", "state": "OR", "formattedAddress": ["280 Maple St (Walnut)", "Ashland, OR 97520", "United States"], "crossStreet": "Walnut", "address": "280 Maple St", "lat": 42.206459, "lng": -122.725128}, "beenHere": {"lastCheckinExpiredAt": 0}, "stats": {"tipCount": 0, "checkinsCount": 1, "usersCount": 1}, "id": "4cc9ca3e41e75481e69d5e84", "categories": [{"pluralName": "Hospitals", "primary": true, "name": "Hospital", "shortName": "Hospital", "id": "4bf58dd8d48988d196941735", "icon": {"prefix": "https://ss3.4sqi.net/img/categories_v2/building/medical_", "suffix": ".png"}}]}, {"referralId": "v-1489699300", "verified": false, "name": "Ashland Community Hospital.", "venueRatingBlacklisted": true, "venueChains": [], "hereNow": {"count": 0, "groups": [], "summary": "Nobody here"}, "specials": {"count": 0, "items": []}, "contact": {"phone": "+15412014000", "formattedPhone": "+1 541-201-4000"}, "hasPerk": false, "location": {"distance": 1001, "labeledLatLngs": [{"lat": 42.2062514748101, "lng": -122.72539534761344, "label": "display"}], "city": "Ashland", "cc": "US", "country": "United States", "postalCode": "97520", "state": "OR", "formattedAddress": ["280 Maple St (Walnut)", "Ashland, OR 97520", "United States"], "crossStreet": "Walnut", "address": "280 Maple St", "lat": 42.2062514748101, "lng": -122.72539534761344}, "beenHere": {"lastCheckinExpiredAt": 0}, "stats": {"tipCount": 0, "checkinsCount": 3, "usersCount": 3}, "id": "4cc9ca1d5c7e8cfac50b4766", "categories": [{"pluralName": "Hospitals", "primary": true, "name": "Hospital", "shortName": "Hospital", "id": "4bf58dd8d48988d196941735", "icon": {"prefix": "https://ss3.4sqi.net/img/categories_v2/building/medical_", "suffix": ".png"}}]}, {"referralId": "v-1489699300", "verified": false, "name": "VCA Jackson Animal Hospital", "venueRatingBlacklisted": true, "venueChains": [], "url": "http://www.vcahospitals.com/jackson/free-pet-exam/form/Yext", "hereNow": {"count": 0, "groups": [], "summary": "Nobody here"}, "specials": {"count": 0, "items": []}, "allowMenuUrlEdit": true, "contact": {"phone": "+15412925591", "twitter": "vcapethealth", "formattedPhone": "+1 541-292-5591"}, "hasPerk": false, "location": {"distance": 18863, "labeledLatLngs": [{"lat": 42.330913, "lng": -122.862058, "label": "display"}], "city": "Medford", "cc": "US", "country": "United States", "postalCode": "97504", "state": "OR", "formattedAddress": ["902 E Jackson St", "Medford, OR 97504", "United States"], "address": "902 E Jackson St", "lat": 42.330913, "lng": -122.862058}, "beenHere": {"lastCheckinExpiredAt": 0}, "stats": {"tipCount": 0, "checkinsCount": 0, "usersCount": 0}, "id": "55e8fa3f498e36ccee6b4014", "categories": [{"pluralName": "Veterinarians", "primary": true, "name": "Veterinarian", "shortName": "Veterinarians", "id": "4d954af4a243a5684765b473", "icon": {"prefix": "https://ss3.4sqi.net/img/categories_v2/building/medical_veterinarian_", "suffix": ".png"}}]}, {"referralId": "v-1489699300", "verified": false, "name": "Asante ITS EpicCenter", "venueRatingBlacklisted": true, "venueChains": [], "hereNow": {"count": 0, "groups": [], "summary": "Nobody here"}, "specials": {"count": 0, "items": []}, "contact": {}, "hasPerk": false, "location": {"distance": 16129, "labeledLatLngs": [{"lat": 42.31569, "lng": -122.834537, "label": "display"}], "city": "Medford", "cc": "US", "country": "United States", "postalCode": "97504", "state": "OR", "formattedAddress": ["701 Black Oak Dr", "Medford, OR 97504", "United States"], "address": "701 Black Oak Dr", "lat": 42.31569, "lng": -122.834537}, "beenHere": {"lastCheckinExpiredAt": 0}, "stats": {"tipCount": 0, "checkinsCount": 1, "usersCount": 1}, "id": "53272d39498e5c6dfa4e75be", "categories": [{"pluralName": "Hospitals", "primary": true, "name": "Hospital", "shortName": "Hospital", "id": "4bf58dd8d48988d196941735", "icon": {"prefix": "https://ss3.4sqi.net/img/categories_v2/building/medical_", "suffix": ".png"}}]}, {"referralId": "v-1489699300", "verified": false, "name": "Providence Medical Center, Room 3041, medford, OR", "venueRatingBlacklisted": true, "venueChains": [], "hereNow": {"count": 0, "groups": [], "summary": "Nobody here"}, "specials": {"count": 0, "items": []}, "contact": {}, "hasPerk": false, "location": {"distance": 19599, "labeledLatLngs": [{"lat": 42.33953149646779, "lng": -122.86178030791376, "label": "display"}], "city": "Medford", "cc": "US", "country": "United States", "state": "OR", "formattedAddress": ["Medford, OR", "United States"], "lat": 42.33953149646779, "lng": -122.86178030791376}, "beenHere": {"lastCheckinExpiredAt": 0}, "stats": {"tipCount": 0, "checkinsCount": 5, "usersCount": 3}, "id": "52fbd152498eb39576e6e4f9", "categories": [{"pluralName": "Hospitals", "primary": true, "name": "Hospital", "shortName": "Hospital", "id": "4bf58dd8d48988d196941735", "icon": {"prefix": "https://ss3.4sqi.net/img/categories_v2/building/medical_", "suffix": ".png"}}]}, {"referralId": "v-1489699300", "verified": false, "name": "Providence Surgery Waiting Room", "venueRatingBlacklisted": true, "venueChains": [], "hereNow": {"count": 0, "groups": [], "summary": "Nobody here"}, "specials": {"count": 0, "items": []}, "contact": {}, "hasPerk": false, "location": {"distance": 19684, "labeledLatLngs": [{"lat": 42.340043, "lng": -122.862577, "label": "display"}], "city": "Medford", "cc": "US", "country": "United States", "state": "OR", "formattedAddress": ["McAndrews Rd", "Medford, OR", "United States"], "address": "McAndrews Rd", "lat": 42.340043, "lng": -122.862577}, "beenHere": {"lastCheckinExpiredAt": 0}, "stats": {"tipCount": 0, "checkinsCount": 2, "usersCount": 2}, "id": "52fac3b5498ead7791141125", "categories": [{"pluralName": "Hospitals", "primary": true, "name": "Hospital", "shortName": "Hospital", "id": "4bf58dd8d48988d196941735", "icon": {"prefix": "https://ss3.4sqi.net/img/categories_v2/building/medical_", "suffix": ".png"}}]}, {"referralId": "v-1489699300", "verified": false, "name": "Columbia Care Services Inc.", "venueRatingBlacklisted": true, "url": "http://columbiacare.org", "hereNow": {"count": 0, "groups": [], "summary": "Nobody here"}, "specials": {"count": 0, "items": []}, "venueChains": [], "contact": {"phone": "+15418588170", "formattedPhone": "+1 541-858-8170"}, "hasPerk": false, "location": {"distance": 23119, "labeledLatLngs": [{"lat": 42.3677412, "lng": -122.8821871, "label": "display"}], "city": "Medford", "cc": "US", "country": "United States", "postalCode": "97504", "state": "OR", "formattedAddress": ["3587 Heathrow Way", "Medford, OR 97504", "United States"], "address": "3587 Heathrow Way", "lat": 42.3677412, "lng": -122.8821871}, "beenHere": {"lastCheckinExpiredAt": 0}, "stats": {"tipCount": 0, "checkinsCount": 0, "usersCount": 0}, "id": "58466cc0a19e90172ff59667", "categories": [{"pluralName": "Assisted Living", "primary": true, "name": "Assisted Living", "shortName": "Assisted Living", "id": "5032891291d4c4b30a586d68", "icon": {"prefix": "https://ss3.4sqi.net/img/categories_v2/building/apartment_", "suffix": ".png"}}]}, {"referralId": "v-1489699300", "verified": false, "name": "Hearthstone Nursing And Rehabilitation Center", "venueRatingBlacklisted": true, "venueChains": [], "hereNow": {"count": 0, "groups": [], "summary": "Nobody here"}, "specials": {"count": 0, "items": []}, "contact": {}, "hasPerk": false, "location": {"distance": 15931, "labeledLatLngs": [{"lat": 42.31707434444089, "lng": -122.82789590706605, "label": "display"}], "city": "Medford", "cc": "US", "country": "United States", "postalCode": "97504", "state": "OR", "formattedAddress": ["2901 E Barnett Rd", "Medford, OR 97504", "United States"], "address": "2901 E Barnett Rd", "lat": 42.31707434444089, "lng": -122.82789590706605}, "beenHere": {"lastCheckinExpiredAt": 0}, "stats": {"tipCount": 0, "checkinsCount": 6, "usersCount": 4}, "id": "514504b3e4b0b3bba5c382b2", "categories": [{"pluralName": "Hospitals", "primary": true, "name": "Hospital", "shortName": "Hospital", "id": "4bf58dd8d48988d196941735", "icon": {"prefix": "https://ss3.4sqi.net/img/categories_v2/building/medical_", "suffix": ".png"}}]}, {"referralId": "v-1489699300", "verified": false, "name": "Ashland Community Hospital", "venueRatingBlacklisted": true, "venueChains": [], "hereNow": {"count": 0, "groups": [], "summary": "Nobody here"}, "specials": {"count": 0, "items": []}, "contact": {}, "hasPerk": false, "location": {"distance": 7093, "labeledLatLngs": [{"lat": 42.24358611665417, "lng": -122.77943945730397, "label": "display"}], "city": "Ashland", "cc": "US", "country": "United States", "postalCode": "97520", "state": "OR", "formattedAddress": ["280 Maple St", "Ashland, OR 97520", "United States"], "address": "280 Maple St", "lat": 42.24358611665417, "lng": -122.77943945730397}, "beenHere": {"lastCheckinExpiredAt": 0}, "stats": {"tipCount": 0, "checkinsCount": 1, "usersCount": 1}, "id": "4cc9c9b5d54fa1cd5ea63929", "categories": [{"pluralName": "Hospitals", "primary": true, "name": "Hospital", "shortName": "Hospital", "id": "4bf58dd8d48988d196941735", "icon": {"prefix": "https://ss3.4sqi.net/img/categories_v2/building/medical_", "suffix": ".png"}}]}, {"referralId": "v-1489699300", "verified": true, "name": "Kindred Nursing and Rehabilitation - Medford", "venueRatingBlacklisted": true, "url": "http://kindredhealthcare.com", "storeId": "", "hereNow": {"count": 0, "groups": [], "summary": "Nobody here"}, "specials": {"count": 0, "items": []}, "venueChains": [], "contact": {"phone": "+15417793551", "formattedPhone": "+1 541-779-3551"}, "hasPerk": false, "location": {"distance": 19485, "labeledLatLngs": [{"lat": 42.33517, "lng": -122.86696, "label": "display"}], "city": "Medford", "cc": "US", "country": "United States", "postalCode": "97504", "state": "OR", "formattedAddress": ["625 Stevens St", "Medford, OR 97504", "United States"], "address": "625 Stevens St", "lat": 42.33517, "lng": -122.86696}, "venuePage": {"id": "79871691"}, "beenHere": {"lastCheckinExpiredAt": 0}, "stats": {"tipCount": 0, "checkinsCount": 0, "usersCount": 0}, "id": "4f9577a67beb021fd53f06dc", "categories": [{"pluralName": "Hospitals", "primary": true, "name": "Hospital", "shortName": "Hospital", "id": "4bf58dd8d48988d196941735", "icon": {"prefix": "https://ss3.4sqi.net/img/categories_v2/building/medical_", "suffix": ".png"}}]}, {"referralId": "v-1489699300", "verified": false, "name": "Ashland  Community Hospital", "venueRatingBlacklisted": true, "venueChains": [], "hereNow": {"count": 0, "groups": [], "summary": "Nobody here"}, "specials": {"count": 0, "items": []}, "contact": {"phone": "+15412014000", "formattedPhone": "+1 541-201-4000"}, "hasPerk": false, "location": {"distance": 2854, "labeledLatLngs": [{"lat": 42.185991046821314, "lng": -122.68767464877267, "label": "display"}], "city": "Ashland", "cc": "US", "country": "United States", "postalCode": "97520", "state": "OR", "formattedAddress": ["500 Catalina (Walnut)", "Ashland, OR 97520", "United States"], "crossStreet": "Walnut", "address": "500 Catalina", "lat": 42.185991046821314, "lng": -122.68767464877267}, "beenHere": {"lastCheckinExpiredAt": 0}, "stats": {"tipCount": 0, "checkinsCount": 2, "usersCount": 2}, "id": "4cc9ca79786e4688f8409609", "categories": [{"pluralName": "Hospitals", "primary": true, "name": "Hospital", "shortName": "Hospital", "id": "4bf58dd8d48988d196941735", "icon": {"prefix": "https://ss3.4sqi.net/img/categories_v2/building/medical_", "suffix": ".png"}}]}, {"referralId": "v-1489699300", "verified": false, "name": "St. Joseph Hospital Blood Bank", "venueRatingBlacklisted": true, "venueChains": [], "hereNow": {"count": 0, "groups": [], "summary": "Nobody here"}, "specials": {"count": 0, "items": []}, "contact": {}, "hasPerk": false, "location": {"distance": 18902, "labeledLatLngs": [{"lat": 42.313152, "lng": -122.887727, "label": "display"}], "city": "Orange", "cc": "US", "country": "United States", "postalCode": "92868", "state": "OR", "formattedAddress": ["1100 W Stewart Dr", "Orange, OR 92868", "United States"], "address": "1100 W Stewart Dr", "lat": 42.313152, "lng": -122.887727}, "beenHere": {"lastCheckinExpiredAt": 0}, "stats": {"tipCount": 0, "checkinsCount": 0, "usersCount": 0}, "id": "50d01719e4b03e4b50625e89", "categories": [{"pluralName": "Hospitals", "primary": true, "name": "Hospital", "shortName": "Hospital", "id": "4bf58dd8d48988d196941735", "icon": {"prefix": "https://ss3.4sqi.net/img/categories_v2/building/medical_", "suffix": ".png"}}]}, {"referralId": "v-1489699300", "verified": false, "name": "Leila J. Eisenstein. Breast Center at Providence Medical Center", "venueRatingBlacklisted": true, "venueChains": [], "hereNow": {"count": 0, "groups": [], "summary": "Nobody here"}, "specials": {"count": 0, "items": []}, "contact": {"phone": "+15417326100", "formattedPhone": "+1 541-732-6100"}, "hasPerk": false, "location": {"distance": 19778, "labeledLatLngs": [{"lat": 42.34026949812299, "lng": -122.86404075904674, "label": "display"}], "city": "Medford", "cc": "US", "country": "United States", "postalCode": "97504", "state": "OR", "formattedAddress": ["1698 E McAndrews Rd Ste 180 (Royal Ave.)", "Medford, OR 97504", "United States"], "crossStreet": "Royal Ave.", "address": "1698 E McAndrews Rd Ste 180", "lat": 42.34026949812299, "lng": -122.86404075904674}, "beenHere": {"lastCheckinExpiredAt": 0}, "stats": {"tipCount": 0, "checkinsCount": 7, "usersCount": 4}, "id": "4f95c012e4b04b568789da65", "categories": [{"pluralName": "Hospitals", "primary": true, "name": "Hospital", "shortName": "Hospital", "id": "4bf58dd8d48988d196941735", "icon": {"prefix": "https://ss3.4sqi.net/img/categories_v2/building/medical_", "suffix": ".png"}}]}]}}