{"notifications": [{"item": {"unreadCount": 0}, "type": "notificationTray"}], "meta": {"code": 200, "requestId": "58cb01fa4434b959fd4d42d2"}, "response": {"confident": true, "venues": [{"referralId": "v-1489699322", "verified": false, "name": "Huron Medical Center", "venueRatingBlacklisted": true, "venueChains": [], "hereNow": {"count": 0, "groups": [], "summary": "Nobody here"}, "specials": {"count": 0, "items": []}, "allowMenuUrlEdit": true, "contact": {"phone": "+19892699521", "formattedPhone": "+1 989-269-9521"}, "hasPerk": false, "location": {"distance": 2548, "labeledLatLngs": [{"lat": 43.80309066856034, "lng": -83.03142526529865, "label": "display"}], "city": "Bad Axe", "cc": "US", "country": "United States", "postalCode": "48413", "state": "MI", "formattedAddress": ["1100 S Van Dyke Rd", "Bad Axe, MI 48413", "United States"], "address": "1100 S Van Dyke Rd", "lat": 43.80309066856034, "lng": -83.03142526529865}, "beenHere": {"lastCheckinExpiredAt": 0}, "stats": {"tipCount": 0, "checkinsCount": 201, "usersCount": 75}, "id": "4c02ab1f0d0e0f478772019a", "categories": [{"pluralName": "Hospitals", "primary": true, "name": "Hospital", "shortName": "Hospital", "id": "4bf58dd8d48988d196941735", "icon": {"prefix": "https://ss3.4sqi.net/img/categories_v2/building/medical_", "suffix": ".png"}}]}, {"referralId": "v-1489699322", "verified": false, "name": "Scheurer Hospital", "venueRatingBlacklisted": true, "venueChains": [], "hereNow": {"count": 0, "groups": [], "summary": "Nobody here"}, "specials": {"count": 0, "items": []}, "contact": {"phone": "+19894533223", "formattedPhone": "+1 989-453-3223"}, "hasPerk": false, "location": {"distance": 22695, "labeledLatLngs": [{"lat": 43.834240836436486, "lng": -83.27854244109703, "label": "display"}], "city": "Pigeon", "cc": "US", "country": "United States", "postalCode": "48755", "state": "MI", "formattedAddress": ["170 N Caseville Rd", "Pigeon, MI 48755", "United States"], "address": "170 N Caseville Rd", "lat": 43.834240836436486, "lng": -83.27854244109703}, "beenHere": {"lastCheckinExpiredAt": 0}, "stats": {"tipCount": 0, "checkinsCount": 165, "usersCount": 62}, "id": "4c25260e136d20a1ac13e361", "categories": [{"pluralName": "Hospitals", "primary": true, "name": "Hospital", "shortName": "Hospital", "id": "4bf58dd8d48988d196941735", "icon": {"prefix": "https://ss3.4sqi.net/img/categories_v2/building/medical_", "suffix": ".png"}}]}, {"referralId": "v-1489699322", "verified": false, "name": "Harbor Beach Community Hospital", "venueRatingBlacklisted": true, "venueChains": [], "hereNow": {"count": 0, "groups": [], "summary": "Nobody here"}, "specials": {"count": 0, "items": []}, "contact": {"phone": "+19894793201", "formattedPhone": "+1 989-479-3201"}, "hasPerk": false, "location": {"distance": 28312, "labeledLatLngs": [{"lat": 43.84277383853881, "lng": -82.65250865111167, "label": "display"}], "city": "Harbor Beach", "cc": "US", "country": "United States", "postalCode": "48441", "state": "MI", "formattedAddress": ["210 S 1st St", "Harbor Beach, MI 48441", "United States"], "address": "210 S 1st St", "lat": 43.84277383853881, "lng": -82.65250865111167}, "beenHere": {"lastCheckinExpiredAt": 0}, "stats": {"tipCount": 0, "checkinsCount": 19, "usersCount": 7}, "id": "4cab65862f08236a2f158661", "categories": [{"pluralName": "Hospitals", "primary": true, "name": "Hospital", "shortName": "Hospital", "id": "4bf58dd8d48988d196941735", "icon": {"prefix": "https://ss3.4sqi.net/img/categories_v2/building/medical_", "suffix": ".png"}}]}, {"referralId": "v-1489699322", "verified": false, "name": "Hills And Dales General Hospital", "venueRatingBlacklisted": true, "venueChains": [], "hereNow": {"count": 0, "groups": [], "summary": "Nobody here"}, "specials": {"count": 0, "items": []}, "allowMenuUrlEdit": true, "contact": {}, "hasPerk": false, "location": {"distance": 26281, "labeledLatLngs": [{"lat": 43.60415407438092, "lng": -83.18237212216869, "label": "display"}], "city": "Cass City", "cc": "US", "country": "United States", "postalCode": "48726", "state": "MI", "formattedAddress": ["Cass City, MI 48726", "United States"], "lat": 43.60415407438092, "lng": -83.18237212216869}, "beenHere": {"lastCheckinExpiredAt": 0}, "stats": {"tipCount": 0, "checkinsCount": 88, "usersCount": 36}, "id": "4ec2a3f7b63460a93c419757", "categories": [{"pluralName": "Hospitals", "primary": true, "name": "Hospital", "shortName": "Hospital", "id": "4bf58dd8d48988d196941735", "icon": {"prefix": "https://ss3.4sqi.net/img/categories_v2/building/medical_", "suffix": ".png"}}]}, {"referralId": "v-1489699322", "verified": false, "name": "Hills & Dales General Hospital", "venueRatingBlacklisted": true, "venueChains": [], "hereNow": {"count": 0, "groups": [], "summary": "Nobody here"}, "specials": {"count": 0, "items": []}, "contact": {"phone": "+9898722121", "formattedPhone": "+98 987 22 121"}, "hasPerk": false, "location": {"distance": 26210, "labeledLatLngs": [{"lat": 43.60486784476712, "lng": -83.18225383758545, "label": "display"}], "city": "Cass City", "cc": "US", "country": "United States", "postalCode": "48726", "state": "MI", "formattedAddress": ["4675 Hill St", "Cass City, MI 48726", "United States"], "address": "4675 Hill St", "lat": 43.60486784476712, "lng": -83.18225383758545}, "beenHere": {"lastCheckinExpiredAt": 0}, "stats": {"tipCount": 1, "checkinsCount": 0, "usersCount": 0}, "id": "5714ad93cd10727592bfabf3", "categories": [{"pluralName": "Hospitals", "primary": true, "name": "Hospital", "shortName": "Hospital", "id": "4bf58dd8d48988d196941735", "icon": {"prefix": "https://ss3.4sqi.net/img/categories_v2/building/medical_", "suffix": ".png"}}]}, {"referralId": "v-1489699322", "verified": false, "name": "Hills & Dales After Hours Clinic", "venueRatingBlacklisted": true, "venueChains": [], "hereNow": {"count": 0, "groups": [], "summary": "Nobody here"}, "specials": {"count": 0, "items": []}, "contact": {"phone": "+19899126114", "formattedPhone": "+1 989-912-6114"}, "hasPerk": false, "location": {"distance": 26205, "labeledLatLngs": [{"lat": 43.604401, "lng": -83.181198, "label": "display"}], "city": "Cass City", "cc": "US", "country": "United States", "postalCode": "48726", "state": "MI", "formattedAddress": ["4672 Hill St", "Cass City, MI 48726", "United States"], "address": "4672 Hill St", "lat": 43.604401, "lng": -83.181198}, "beenHere": {"lastCheckinExpiredAt": 0}, "stats": {"tipCount": 0, "checkinsCount": 0, "usersCount": 0}, "id": "57fd44ba498eac9a96f9b459", "categories": [{"pluralName": "Hospitals", "primary": true, "name": "Hospital", "shortName": "Hospital", "id": "4bf58dd8d48988d196941735", "icon": {"prefix": "https://ss3.4sqi.net/img/categories_v2/building/medical_", "suffix": ".png"}}]}]}}