{"notifications": [{"item": {"unreadCount": 0}, "type": "notificationTray"}], "meta": {"code": 200, "requestId": "58cb02019fb6b77781d18df9"}, "response": {"confident": true, "venues": [{"referralId": "v-1489699329", "verified": true, "name": "University Of Maryland Medical Center (UMMC)", "venueRatingBlacklisted": true, "url": "http://www.umm.edu", "hereNow": {"count": 0, "groups": [], "summary": "Nobody here"}, "specials": {"count": 0, "items": []}, "venueChains": [], "contact": {"phone": "+18004925538", "twitter": "UMMC", "formattedPhone": "+1 800-492-5538"}, "hasPerk": false, "location": {"distance": 835, "labeledLatLngs": [{"lat": 39.28808717037024, "lng": -76.62416512637607, "label": "display"}], "city": "Baltimore", "cc": "US", "country": "United States", "postalCode": "21201", "state": "MD", "formattedAddress": ["22 S Greene St (at W. Lombard St.)", "Baltimore, MD 21201", "United States"], "crossStreet": "at W. Lombard St.", "address": "22 S Greene St", "lat": 39.28808717037024, "lng": -76.62416512637607}, "beenHere": {"lastCheckinExpiredAt": 0}, "stats": {"tipCount": 20, "checkinsCount": 13563, "usersCount": 2843}, "id": "4ad4c019f964a52028f120e3", "categories": [{"pluralName": "Hospitals", "primary": true, "name": "Hospital", "shortName": "Hospital", "id": "4bf58dd8d48988d196941735", "icon": {"prefix": "https://ss3.4sqi.net/img/categories_v2/building/medical_", "suffix": ".png"}}]}, {"referralId": "v-1489699329", "verified": false, "name": "Sheppard Pratt at Ellicott City", "venueRatingBlacklisted": true, "venueChains": [], "hereNow": {"count": 0, "groups": [], "summary": "Nobody here"}, "specials": {"count": 0, "items": []}, "allowMenuUrlEdit": true, "contact": {}, "hasPerk": false, "location": {"distance": 15533, "labeledLatLngs": [{"lat": 39.25579508168355, "lng": -76.79336988436205, "label": "display"}], "city": "Ellicott City", "cc": "US", "country": "United States", "postalCode": "21043", "state": "MD", "formattedAddress": ["4100 College Ave", "Ellicott City, MD 21043", "United States"], "address": "4100 College Ave", "lat": 39.25579508168355, "lng": -76.79336988436205}, "beenHere": {"lastCheckinExpiredAt": 0}, "stats": {"tipCount": 0, "checkinsCount": 290, "usersCount": 86}, "id": "4b5f1868f964a520cfa529e3", "categories": [{"pluralName": "Hospitals", "primary": true, "name": "Hospital", "shortName": "Hospital", "id": "4bf58dd8d48988d196941735", "icon": {"prefix": "https://ss3.4sqi.net/img/categories_v2/building/medical_", "suffix": ".png"}}]}, {"referralId": "v-1489699329", "verified": false, "name": "Baltimore VA Medical Center", "venueRatingBlacklisted": true, "venueChains": [], "hereNow": {"count": 0, "groups": [], "summary": "Nobody here"}, "specials": {"count": 0, "items": []}, "contact": {"phone": "+14106057000", "formattedPhone": "+1 410-605-7000"}, "hasPerk": false, "location": {"distance": 956, "labeledLatLngs": [{"lat": 39.28983123047258, "lng": -76.62392819163483, "label": "display"}], "city": "Baltimore", "cc": "US", "country": "United States", "postalCode": "21201", "state": "MD", "formattedAddress": ["10 N Greene St", "Baltimore, MD 21201", "United States"], "address": "10 N Greene St", "lat": 39.28983123047258, "lng": -76.62392819163483}, "beenHere": {"lastCheckinExpiredAt": 0}, "stats": {"tipCount": 17, "checkinsCount": 3479, "usersCount": 624}, "id": "4b13c3dbf964a520fe9823e3", "categories": [{"pluralName": "Hospitals", "primary": true, "name": "Hospital", "shortName": "Hospital", "id": "4bf58dd8d48988d196941735", "icon": {"prefix": "https://ss3.4sqi.net/img/categories_v2/building/medical_", "suffix": ".png"}}]}, {"referralId": "v-1489699329", "verified": true, "name": "R. Adams Cowley Shock Trauma Center (UMMC)", "venueRatingBlacklisted": true, "url": "http://umm.edu/programs/shock-trauma", "hereNow": {"count": 0, "groups": [], "summary": "Nobody here"}, "specials": {"count": 0, "items": []}, "venueChains": [], "contact": {"phone": "+18004925538", "twitter": "ummc", "formattedPhone": "+1 800-492-5538"}, "hasPerk": false, "location": {"distance": 922, "labeledLatLngs": [{"lat": 39.287819612969706, "lng": -76.62566363811493, "label": "display"}], "city": "Baltimore", "cc": "US", "country": "United States", "postalCode": "21201", "state": "MD", "formattedAddress": ["22 S Greene St", "Baltimore, MD 21201", "United States"], "address": "22 S Greene St", "lat": 39.287819612969706, "lng": -76.62566363811493}, "beenHere": {"lastCheckinExpiredAt": 0}, "stats": {"tipCount": 7, "checkinsCount": 3908, "usersCount": 698}, "id": "4ae2a435f964a5203e8f21e3", "categories": [{"pluralName": "Hospitals", "primary": true, "name": "Hospital", "shortName": "Hospital", "id": "4bf58dd8d48988d196941735", "icon": {"prefix": "https://ss3.4sqi.net/img/categories_v2/building/medical_", "suffix": ".png"}}]}, {"referralId": "v-1489699329", "verified": false, "name": "Johns Hopkins Hospital", "venueRatingBlacklisted": true, "url": "http://www.hopkinsmedicine.org/", "hereNow": {"count": 1, "groups": [{"count": 1, "items": [], "type": "others", "name": "Other people here"}], "summary": "One other person is here"}, "specials": {"count": 0, "items": []}, "venueChains": [], "contact": {"phone": "+14109555000", "twitter": "HopkinsMedNews", "formattedPhone": "+1 410-955-5000"}, "hasPerk": false, "location": {"distance": 2592, "labeledLatLngs": [{"lat": 39.29717742570249, "lng": -76.59247398376465, "label": "display"}], "city": "Baltimore", "cc": "US", "country": "United States", "postalCode": "21287", "state": "MD", "formattedAddress": ["1800 Orleans St (btwn Wolfe and Broadway)", "Baltimore, MD 21287", "United States"], "crossStreet": "btwn Wolfe and Broadway", "address": "1800 Orleans St", "lat": 39.29717742570249, "lng": -76.59247398376465}, "beenHere": {"lastCheckinExpiredAt": 0}, "stats": {"tipCount": 41, "checkinsCount": 23787, "usersCount": 4275}, "id": "4b06bd26f964a52067ef22e3", "categories": [{"pluralName": "Hospitals", "primary": true, "name": "Hospital", "shortName": "Hospital", "id": "4bf58dd8d48988d196941735", "icon": {"prefix": "https://ss3.4sqi.net/img/categories_v2/building/medical_", "suffix": ".png"}}]}, {"referralId": "v-1489699329", "verified": false, "name": "Northwest Hospital", "venueRatingBlacklisted": true, "url": "http://www.lifebridgeblogs.org/", "hereNow": {"count": 1, "groups": [{"count": 1, "items": [], "type": "others", "name": "Other people here"}], "summary": "One other person is here"}, "specials": {"count": 0, "items": []}, "venueChains": [], "contact": {"phone": "+14105212200", "twitter": "LBHealth", "formattedPhone": "+1 410-521-2200"}, "hasPerk": false, "location": {"distance": 16521, "labeledLatLngs": [{"lat": 39.35882258150854, "lng": -76.78184836851293, "label": "display"}], "city": "Randallstown", "cc": "US", "country": "United States", "postalCode": "21133", "state": "MD", "formattedAddress": ["5401 Old Court Rd (Liberty Rd)", "Randallstown, MD 21133", "United States"], "crossStreet": "Liberty Rd", "address": "5401 Old Court Rd", "lat": 39.35882258150854, "lng": -76.78184836851293}, "beenHere": {"lastCheckinExpiredAt": 0}, "stats": {"tipCount": 10, "checkinsCount": 4291, "usersCount": 860}, "id": "4b60ade6f964a520aff329e3", "categories": [{"pluralName": "Hospitals", "primary": true, "name": "Hospital", "shortName": "Hospital", "id": "4bf58dd8d48988d196941735", "icon": {"prefix": "https://ss3.4sqi.net/img/categories_v2/building/medical_", "suffix": ".png"}}]}, {"referralId": "v-1489699329", "verified": true, "name": "University of Maryland St. Joseph Medical Center", "venueRatingBlacklisted": true, "url": "http://www.StJosephTowson.com", "hereNow": {"count": 2, "groups": [{"count": 2, "items": [], "type": "others", "name": "Other people here"}], "summary": "2 people are here"}, "specials": {"count": 0, "items": []}, "venueChains": [], "contact": {"phone": "+14103371000", "twitter": "SJMCTowson", "formattedPhone": "+1 410-337-1000"}, "hasPerk": false, "location": {"distance": 11636, "labeledLatLngs": [{"lat": 39.38778461951132, "lng": -76.61144256591797, "label": "display"}], "city": "Towson", "cc": "US", "country": "United States", "postalCode": "21204", "state": "MD", "formattedAddress": ["7601 Osler Dr", "Towson, MD 21204", "United States"], "address": "7601 Osler Dr", "lat": 39.38778461951132, "lng": -76.61144256591797}, "beenHere": {"lastCheckinExpiredAt": 0}, "stats": {"tipCount": 17, "checkinsCount": 5911, "usersCount": 1442}, "id": "4b0fea74f964a520366623e3", "categories": [{"pluralName": "Hospitals", "primary": true, "name": "Hospital", "shortName": "Hospital", "id": "4bf58dd8d48988d196941735", "icon": {"prefix": "https://ss3.4sqi.net/img/categories_v2/building/medical_", "suffix": ".png"}}]}, {"referralId": "v-1489699329", "verified": false, "name": "Mercy Medical Center", "venueRatingBlacklisted": true, "venueChains": [], "url": "http://www.mdmercy.com", "hereNow": {"count": 0, "groups": [], "summary": "Nobody here"}, "specials": {"count": 0, "items": []}, "allowMenuUrlEdit": true, "contact": {"phone": "+14103329000", "twitter": "mdmercymedia", "formattedPhone": "+1 410-332-9000"}, "hasPerk": false, "location": {"distance": 1169, "labeledLatLngs": [{"lat": 39.29346252269692, "lng": -76.61304564313654, "label": "display"}], "city": "Baltimore", "cc": "US", "country": "United States", "postalCode": "21202", "state": "MD", "formattedAddress": ["345 Saint Paul St (at E Saratoga St)", "Baltimore, MD 21202", "United States"], "crossStreet": "at E Saratoga St", "address": "345 Saint Paul St", "lat": 39.29346252269692, "lng": -76.61304564313654}, "beenHere": {"lastCheckinExpiredAt": 0}, "stats": {"tipCount": 14, "checkinsCount": 4792, "usersCount": 1312}, "id": "4df3fdfd6284fefe8fc4814e", "categories": [{"pluralName": "Hospitals", "primary": true, "name": "Hospital", "shortName": "Hospital", "id": "4bf58dd8d48988d196941735", "icon": {"prefix": "https://ss3.4sqi.net/img/categories_v2/building/medical_", "suffix": ".png"}}]}, {"referralId": "v-1489699329", "verified": false, "name": "Mercy Medical Center: Bunting Center", "venueRatingBlacklisted": true, "url": "http://mdmercy.com", "hereNow": {"count": 0, "groups": [], "summary": "Nobody here"}, "specials": {"count": 0, "items": []}, "venueChains": [], "contact": {"phone": "+14103329000", "twitter": "mdmercymedia", "formattedPhone": "+1 410-332-9000"}, "hasPerk": false, "location": {"distance": 1211, "labeledLatLngs": [{"lat": 39.2938696045949, "lng": -76.61315847888248, "label": "display"}], "city": "Baltimore", "cc": "US", "country": "United States", "postalCode": "21202", "state": "MD", "formattedAddress": ["345 Saint Paul St", "Baltimore, MD 21202", "United States"], "address": "345 Saint Paul St", "lat": 39.2938696045949, "lng": -76.61315847888248}, "beenHere": {"lastCheckinExpiredAt": 0}, "stats": {"tipCount": 13, "checkinsCount": 3623, "usersCount": 715}, "id": "4c6b231796eaa59352ed21df", "categories": [{"pluralName": "Hospitals", "primary": true, "name": "Hospital", "shortName": "Hospital", "id": "4bf58dd8d48988d196941735", "icon": {"prefix": "https://ss3.4sqi.net/img/categories_v2/building/medical_", "suffix": ".png"}}]}, {"referralId": "v-1489699329", "verified": false, "name": "Johns Hopkins Bayview Medical Center", "venueRatingBlacklisted": true, "venueChains": [], "url": "http://www.hopkinsmedicine.org", "hereNow": {"count": 0, "groups": [], "summary": "Nobody here"}, "specials": {"count": 0, "items": []}, "allowMenuUrlEdit": true, "contact": {"phone": "+14105500100", "twitter": "hopkinsbayview", "formattedPhone": "+1 410-550-0100"}, "hasPerk": false, "location": {"distance": 6137, "city": "Baltimore", "cc": "US", "country": "United States", "postalCode": "21224", "state": "MD", "formattedAddress": ["4940 Eastern Ave", "Baltimore, MD 21224", "United States"], "address": "4940 Eastern Ave", "lat": 39.29108302542363, "lng": -76.54613910796724}, "beenHere": {"lastCheckinExpiredAt": 0}, "stats": {"tipCount": 14, "checkinsCount": 8625, "usersCount": 2046}, "id": "4ad4c019f964a52007f120e3", "categories": [{"pluralName": "Hospitals", "primary": true, "name": "Hospital", "shortName": "Hospital", "id": "4bf58dd8d48988d196941735", "icon": {"prefix": "https://ss3.4sqi.net/img/categories_v2/building/medical_", "suffix": ".png"}}]}, {"referralId": "v-1489699329", "verified": true, "name": "Sinai Hospital of Baltimore", "venueRatingBlacklisted": true, "url": "http://www.lifebridgehealth.org", "storeId": "", "hereNow": {"count": 0, "groups": [], "summary": "Nobody here"}, "specials": {"count": 0, "items": []}, "venueChains": [], "contact": {"phone": "+14106019000", "twitter": "LBHealth", "formattedPhone": "+1 410-601-9000"}, "hasPerk": false, "location": {"distance": 8693, "labeledLatLngs": [{"lat": 39.352975421732104, "lng": -76.66233970679804, "label": "display"}], "city": "Baltimore", "cc": "US", "country": "United States", "postalCode": "21215", "state": "MD", "formattedAddress": ["2401 W Belvedere Ave (at W Northern Pkwy)", "Baltimore, MD 21215", "United States"], "crossStreet": "at W Northern Pkwy", "address": "2401 W Belvedere Ave", "lat": 39.352975421732104, "lng": -76.66233970679804}, "beenHere": {"lastCheckinExpiredAt": 0}, "stats": {"tipCount": 39, "checkinsCount": 8986, "usersCount": 1937}, "id": "4ad4c019f964a52009f120e3", "categories": [{"pluralName": "Hospitals", "primary": true, "name": "Hospital", "shortName": "Hospital", "id": "4bf58dd8d48988d196941735", "icon": {"prefix": "https://ss3.4sqi.net/img/categories_v2/building/medical_", "suffix": ".png"}}]}, {"referralId": "v-1489699329", "verified": false, "name": "Greater Baltimore Medical Center", "venueRatingBlacklisted": true, "venueChains": [], "url": "http://www.gbmc.org", "hereNow": {"count": 0, "groups": [], "summary": "Nobody here"}, "specials": {"count": 0, "items": []}, "allowMenuUrlEdit": true, "contact": {"phone": "+14438492000", "twitter": "GBMCMedia", "formattedPhone": "+1 443-849-2000"}, "hasPerk": false, "location": {"distance": 11993, "labeledLatLngs": [{"lat": 39.39087800362538, "lng": -76.62505080710459, "label": "display"}], "city": "Towson", "cc": "US", "country": "United States", "postalCode": "21204", "state": "MD", "formattedAddress": ["6701 N Charles St (at Malvern Ave)", "Towson, MD 21204", "United States"], "crossStreet": "at Malvern Ave", "address": "6701 N Charles St", "lat": 39.39087800362538, "lng": -76.62505080710459}, "beenHere": {"lastCheckinExpiredAt": 0}, "stats": {"tipCount": 27, "checkinsCount": 11030, "usersCount": 2451}, "id": "4b4dbfcff964a520c6d626e3", "categories": [{"pluralName": "Hospitals", "primary": true, "name": "Hospital", "shortName": "Hospital", "id": "4bf58dd8d48988d196941735", "icon": {"prefix": "https://ss3.4sqi.net/img/categories_v2/building/medical_", "suffix": ".png"}}]}, {"referralId": "v-1489699329", "verified": false, "name": "Anne Arundel Medical Center", "venueRatingBlacklisted": true, "venueChains": [], "hereNow": {"count": 0, "groups": [], "summary": "Nobody here"}, "specials": {"count": 0, "items": []}, "allowMenuUrlEdit": true, "contact": {}, "hasPerk": false, "location": {"distance": 33444, "labeledLatLngs": [{"lat": 38.98983625380071, "lng": -76.5338945388794, "label": "display"}], "city": "Annapolis", "cc": "US", "country": "United States", "postalCode": "21401", "state": "MD", "formattedAddress": ["2001 Medical Pkwy", "Annapolis, MD 21401", "United States"], "address": "2001 Medical Pkwy", "lat": 38.98983625380071, "lng": -76.5338945388794}, "beenHere": {"lastCheckinExpiredAt": 0}, "stats": {"tipCount": 25, "checkinsCount": 9046, "usersCount": 2121}, "id": "4b20f2d9f964a520893524e3", "categories": [{"pluralName": "Hospitals", "primary": true, "name": "Hospital", "shortName": "Hospital", "id": "4bf58dd8d48988d196941735", "icon": {"prefix": "https://ss3.4sqi.net/img/categories_v2/building/medical_", "suffix": ".png"}}]}, {"referralId": "v-1489699329", "verified": false, "name": "St. Agnes Hospital", "venueRatingBlacklisted": true, "url": "http://www.stagnes.org/", "hereNow": {"count": 0, "groups": [], "summary": "Nobody here"}, "specials": {"count": 0, "items": []}, "venueChains": [], "contact": {"phone": "+14103686000", "twitter": "SaintAgnesMD", "formattedPhone": "+1 410-368-6000"}, "hasPerk": false, "location": {"distance": 4978, "labeledLatLngs": [{"lat": 39.27213188522936, "lng": -76.67259693145752, "label": "display"}], "city": "Baltimore", "cc": "US", "country": "United States", "postalCode": "21229", "state": "MD", "formattedAddress": ["900 S Caton Ave (at Wilkens Ave.)", "Baltimore, MD 21229", "United States"], "crossStreet": "at Wilkens Ave.", "address": "900 S Caton Ave", "lat": 39.27213188522936, "lng": -76.67259693145752}, "beenHere": {"lastCheckinExpiredAt": 0}, "stats": {"tipCount": 24, "checkinsCount": 7160, "usersCount": 1609}, "id": "4ad4c019f964a5200af120e3", "categories": [{"pluralName": "Hospitals", "primary": true, "name": "Hospital", "shortName": "Hospital", "id": "4bf58dd8d48988d196941735", "icon": {"prefix": "https://ss3.4sqi.net/img/categories_v2/building/medical_", "suffix": ".png"}}]}, {"referralId": "v-1489699329", "verified": true, "name": "MedStar Union Memorial Hospital", "venueRatingBlacklisted": true, "url": "http://t.co/tDBoAjbqWY", "hereNow": {"count": 0, "groups": [], "summary": "Nobody here"}, "specials": {"count": 0, "items": []}, "venueChains": [{"id": "5568f127a7c8a9cf8ec427c3"}], "contact": {"phone": "+14105542000", "twitter": "medstarhealth", "formattedPhone": "+1 410-554-2000"}, "hasPerk": false, "location": {"distance": 5097, "city": "Baltimore", "cc": "US", "country": "United States", "postalCode": "21218", "state": "MD", "formattedAddress": ["201 E University Pkwy (at N Calvert St)", "Baltimore, MD 21218", "United States"], "crossStreet": "at N Calvert St", "address": "201 E University Pkwy", "lat": 39.32909647561331, "lng": -76.61458020073695}, "beenHere": {"lastCheckinExpiredAt": 0}, "stats": {"tipCount": 15, "checkinsCount": 8127, "usersCount": 1465}, "id": "4ad4c019f964a5200ef120e3", "categories": [{"pluralName": "Hospitals", "primary": true, "name": "Hospital", "shortName": "Hospital", "id": "4bf58dd8d48988d196941735", "icon": {"prefix": "https://ss3.4sqi.net/img/categories_v2/building/medical_", "suffix": ".png"}}]}, {"referralId": "v-1489699329", "verified": false, "name": "Sheppard Pratt Health System", "venueRatingBlacklisted": true, "venueChains": [], "hereNow": {"count": 0, "groups": [], "summary": "Nobody here"}, "specials": {"count": 0, "items": []}, "contact": {}, "hasPerk": false, "location": {"distance": 12001, "labeledLatLngs": [{"lat": 39.39110409011362, "lng": -76.6204530981838, "label": "display"}], "city": "Towson", "cc": "US", "country": "United States", "postalCode": "21204", "state": "MD", "formattedAddress": ["6501 N Charles St", "Towson, MD 21204", "United States"], "address": "6501 N Charles St", "lat": 39.39110409011362, "lng": -76.6204530981838}, "beenHere": {"lastCheckinExpiredAt": 0}, "stats": {"tipCount": 4, "checkinsCount": 4403, "usersCount": 520}, "id": "4ade5bd6f964a5204e7521e3", "categories": [{"pluralName": "Hospitals", "primary": true, "name": "Hospital", "shortName": "Hospital", "id": "4bf58dd8d48988d196941735", "icon": {"prefix": "https://ss3.4sqi.net/img/categories_v2/building/medical_", "suffix": ".png"}}]}, {"referralId": "v-1489699329", "verified": false, "name": "The Charlotte R. Bloomberg Children's Center at Johns Hopkins Hospital", "venueRatingBlacklisted": true, "venueChains": [], "url": "http://www.hopkinschildrens.org", "hereNow": {"count": 0, "groups": [], "summary": "Nobody here"}, "specials": {"count": 0, "items": []}, "allowMenuUrlEdit": true, "contact": {"phone": "+14109555000", "twitter": "hopkinskids", "formattedPhone": "+1 410-955-5000"}, "hasPerk": false, "location": {"distance": 2557, "labeledLatLngs": [{"lat": 39.29576980556205, "lng": -76.59170661275617, "label": "display"}], "city": "Baltimore", "cc": "US", "country": "United States", "postalCode": "21287", "state": "MD", "formattedAddress": ["1800 Orleans St (Orleans and Wolfe St.)", "Baltimore, MD 21287", "United States"], "crossStreet": "Orleans and Wolfe St.", "address": "1800 Orleans St", "lat": 39.29576980556205, "lng": -76.59170661275617}, "beenHere": {"lastCheckinExpiredAt": 0}, "stats": {"tipCount": 4, "checkinsCount": 2391, "usersCount": 577}, "id": "4db034170437a93f7f6f082c", "categories": [{"pluralName": "Hospitals", "primary": true, "name": "Hospital", "shortName": "Hospital", "id": "4bf58dd8d48988d196941735", "icon": {"prefix": "https://ss3.4sqi.net/img/categories_v2/building/medical_", "suffix": ".png"}}]}, {"referralId": "v-1489699329", "verified": false, "name": "Mt. Washington Pediatric Hospital", "venueRatingBlacklisted": true, "venueChains": [], "hereNow": {"count": 0, "groups": [], "summary": "Nobody here"}, "specials": {"count": 0, "items": []}, "contact": {"phone": "+14105782600", "twitter": "MWPH", "formattedPhone": "+1 410-578-2600"}, "hasPerk": false, "location": {"distance": 9407, "labeledLatLngs": [{"lat": 39.362893206113505, "lng": -76.65350777802735, "label": "display"}], "city": "Baltimore", "cc": "US", "country": "United States", "postalCode": "21209", "state": "MD", "formattedAddress": ["1708 W Rogers Ave", "Baltimore, MD 21209", "United States"], "address": "1708 W Rogers Ave", "lat": 39.362893206113505, "lng": -76.65350777802735}, "beenHere": {"lastCheckinExpiredAt": 0}, "stats": {"tipCount": 4, "checkinsCount": 1484, "usersCount": 234}, "id": "4bab7423f964a52088aa3ae3", "categories": [{"pluralName": "Hospitals", "primary": true, "name": "Hospital", "shortName": "Hospital", "id": "4bf58dd8d48988d196941735", "icon": {"prefix": "https://ss3.4sqi.net/img/categories_v2/building/medical_", "suffix": ".png"}}]}, {"referralId": "v-1489699329", "verified": false, "name": "Sheikh Zayed Tower", "venueRatingBlacklisted": true, "venueChains": [], "hereNow": {"count": 0, "groups": [], "summary": "Nobody here"}, "specials": {"count": 0, "items": []}, "allowMenuUrlEdit": true, "contact": {"phone": "+14109555000", "twitter": "HopkinsMedicine", "formattedPhone": "+1 410-955-5000"}, "hasPerk": false, "location": {"distance": 2528, "labeledLatLngs": [{"lat": 39.296039535978295, "lng": -76.59234423982122, "label": "display"}], "city": "Baltimore", "cc": "US", "country": "United States", "postalCode": "21287", "state": "MD", "formattedAddress": ["600 N Wolfe St (at Orleans St.)", "Baltimore, MD 21287", "United States"], "crossStreet": "at Orleans St.", "address": "600 N Wolfe St", "lat": 39.296039535978295, "lng": -76.59234423982122}, "beenHere": {"lastCheckinExpiredAt": 0}, "stats": {"tipCount": 4, "checkinsCount": 4837, "usersCount": 722}, "id": "4f28358ae4b0b50174b81e52", "categories": [{"pluralName": "Hospitals", "primary": true, "name": "Hospital", "shortName": "Hospital", "id": "4bf58dd8d48988d196941735", "icon": {"prefix": "https://ss3.4sqi.net/img/categories_v2/building/medical_", "suffix": ".png"}}]}, {"referralId": "v-1489699329", "verified": false, "name": "Bon Secours Hospital", "venueRatingBlacklisted": true, "venueChains": [], "hereNow": {"count": 0, "groups": [], "summary": "Nobody here"}, "specials": {"count": 0, "items": []}, "contact": {"phone": "+14103623000", "formattedPhone": "+1 410-362-3000"}, "hasPerk": false, "location": {"distance": 2877, "labeledLatLngs": [{"lat": 39.288721160892116, "lng": -76.64932847117798, "label": "display"}], "city": "Baltimore", "cc": "US", "country": "United States", "postalCode": "21223", "state": "MD", "formattedAddress": ["2000 W Baltimore St", "Baltimore, MD 21223", "United States"], "address": "2000 W Baltimore St", "lat": 39.288721160892116, "lng": -76.64932847117798}, "beenHere": {"lastCheckinExpiredAt": 0}, "stats": {"tipCount": 10, "checkinsCount": 1308, "usersCount": 255}, "id": "4c6b29d19669e21ef08faa51", "categories": [{"pluralName": "Hospitals", "primary": true, "name": "Hospital", "shortName": "Hospital", "id": "4bf58dd8d48988d196941735", "icon": {"prefix": "https://ss3.4sqi.net/img/categories_v2/building/medical_", "suffix": ".png"}}]}, {"referralId": "v-1489699329", "verified": true, "name": "MedStar Good Samaritan Hospital", "venueRatingBlacklisted": true, "venueChains": [{"id": "5568f127a7c8a9cf8ec427c3"}], "url": "http://t.co/tDBoAjbqWY", "hereNow": {"count": 0, "groups": [], "summary": "Nobody here"}, "specials": {"count": 0, "items": []}, "allowMenuUrlEdit": true, "contact": {"phone": "+14434448000", "twitter": "medstarhealth", "formattedPhone": "+1 443-444-8000"}, "hasPerk": false, "location": {"distance": 8720, "labeledLatLngs": [{"lat": 39.35831367859016, "lng": -76.58735034999401, "label": "display"}], "city": "Baltimore", "cc": "US", "country": "United States", "postalCode": "21239", "state": "MD", "formattedAddress": ["5601 Loch Raven Blvd", "Baltimore, MD 21239", "United States"], "address": "5601 Loch Raven Blvd", "lat": 39.35831367859016, "lng": -76.58735034999401}, "beenHere": {"lastCheckinExpiredAt": 0}, "stats": {"tipCount": 17, "checkinsCount": 4600, "usersCount": 997}, "id": "4ae6e2dff964a52069a721e3", "categories": [{"pluralName": "Hospitals", "primary": true, "name": "Hospital", "shortName": "Hospital", "id": "4bf58dd8d48988d196941735", "icon": {"prefix": "https://ss3.4sqi.net/img/categories_v2/building/medical_", "suffix": ".png"}}]}, {"referralId": "v-1489699329", "verified": true, "name": "MedStar Franklin Square Medical Center", "venueRatingBlacklisted": true, "url": "http://t.co/tDBoAjbqWY", "hereNow": {"count": 0, "groups": [], "summary": "Nobody here"}, "specials": {"count": 0, "items": []}, "venueChains": [{"id": "5568f127a7c8a9cf8ec427c3"}], "contact": {"phone": "+14437777000", "twitter": "medstarhealth", "formattedPhone": "+1 443-777-7000"}, "hasPerk": false, "location": {"distance": 14048, "labeledLatLngs": [{"lat": 39.35133922909774, "lng": -76.47924863224654, "label": "display"}], "city": "Rosedale", "cc": "US", "country": "United States", "postalCode": "21237", "state": "MD", "formattedAddress": ["9000 Franklin Square Dr (at Hospital Dr.)", "Rosedale, MD 21237", "United States"], "crossStreet": "at Hospital Dr.", "address": "9000 Franklin Square Dr", "lat": 39.35133922909774, "lng": -76.47924863224654}, "beenHere": {"lastCheckinExpiredAt": 0}, "stats": {"tipCount": 14, "checkinsCount": 5990, "usersCount": 1376}, "id": "4b252f7ff964a520966d24e3", "categories": [{"pluralName": "Hospitals", "primary": true, "name": "Hospital", "shortName": "Hospital", "id": "4bf58dd8d48988d196941735", "icon": {"prefix": "https://ss3.4sqi.net/img/categories_v2/building/medical_", "suffix": ".png"}}]}, {"referralId": "v-1489699329", "verified": true, "name": "Howard County General Hospital, Johns Hopkins Medicine", "venueRatingBlacklisted": true, "venueChains": [], "url": "http://www.hcgh.org", "storeId": "", "hereNow": {"count": 0, "groups": [], "summary": "Nobody here"}, "specials": {"count": 0, "items": []}, "allowMenuUrlEdit": true, "contact": {"phone": "+14107407890", "twitter": "HopkinsHowardC", "formattedPhone": "+1 410-740-7890"}, "hasPerk": false, "location": {"distance": 24423, "labeledLatLngs": [{"lat": 39.21342141095926, "lng": -76.88521084344404, "label": "display"}], "city": "Columbia", "cc": "US", "country": "United States", "postalCode": "21044", "state": "MD", "formattedAddress": ["5755 Cedar Ln (Little Patuxent Pkwy)", "Columbia, MD 21044", "United States"], "crossStreet": "Little Patuxent Pkwy", "address": "5755 Cedar Ln", "lat": 39.21342141095926, "lng": -76.88521084344404}, "beenHere": {"lastCheckinExpiredAt": 0}, "stats": {"tipCount": 13, "checkinsCount": 5614, "usersCount": 1422}, "id": "4b1022bcf964a520c96923e3", "categories": [{"pluralName": "Hospitals", "primary": true, "name": "Hospital", "shortName": "Hospital", "id": "4bf58dd8d48988d196941735", "icon": {"prefix": "https://ss3.4sqi.net/img/categories_v2/building/medical_", "suffix": ".png"}}]}, {"referralId": "v-1489699329", "verified": false, "name": "Johns Hopkins Hospital, The Harry & Jeanette Weinberg Bldg", "venueRatingBlacklisted": true, "venueChains": [], "hereNow": {"count": 0, "groups": [], "summary": "Nobody here"}, "specials": {"count": 0, "items": []}, "contact": {"phone": "+14105021518", "formattedPhone": "+1 410-502-1518"}, "hasPerk": false, "location": {"distance": 2455, "labeledLatLngs": [{"lat": 39.296135868489365, "lng": -76.59345584755305, "label": "display"}], "city": "Baltimore", "cc": "US", "country": "United States", "postalCode": "21287", "state": "MD", "formattedAddress": ["401 N Broadway St (Orleans Street)", "Baltimore, MD 21287", "United States"], "crossStreet": "Orleans Street", "address": "401 N Broadway St", "lat": 39.296135868489365, "lng": -76.59345584755305}, "beenHere": {"lastCheckinExpiredAt": 0}, "stats": {"tipCount": 10, "checkinsCount": 2885, "usersCount": 852}, "id": "4c8843e00f3c236a69c8f15c", "categories": [{"pluralName": "Hospitals", "primary": true, "name": "Hospital", "shortName": "Hospital", "id": "4bf58dd8d48988d196941735", "icon": {"prefix": "https://ss3.4sqi.net/img/categories_v2/building/medical_", "suffix": ".png"}}]}, {"referralId": "v-1489699329", "verified": false, "name": "GBMC Labor & Delivery", "venueRatingBlacklisted": true, "venueChains": [], "hereNow": {"count": 0, "groups": [], "summary": "Nobody here"}, "specials": {"count": 0, "items": []}, "contact": {}, "hasPerk": false, "location": {"distance": 12085, "labeledLatLngs": [{"lat": 39.39172225876764, "lng": -76.62462207070499, "label": "display"}], "city": "Towson", "cc": "US", "country": "United States", "postalCode": "21204", "state": "MD", "formattedAddress": ["6701 N Charles St", "Towson, MD 21204", "United States"], "address": "6701 N Charles St", "lat": 39.39172225876764, "lng": -76.62462207070499}, "beenHere": {"lastCheckinExpiredAt": 0}, "stats": {"tipCount": 3, "checkinsCount": 805, "usersCount": 333}, "id": "4dfe07a78877e9c474980d6a", "categories": [{"pluralName": "Hospitals", "primary": true, "name": "Hospital", "shortName": "Hospital", "id": "4bf58dd8d48988d196941735", "icon": {"prefix": "https://ss3.4sqi.net/img/categories_v2/building/medical_", "suffix": ".png"}}]}, {"referralId": "v-1489699329", "verified": false, "name": "Kennedy Krieger Institute", "venueRatingBlacklisted": true, "venueChains": [], "hereNow": {"count": 0, "groups": [], "summary": "Nobody here"}, "specials": {"count": 0, "items": []}, "contact": {"phone": "+14439239000", "formattedPhone": "+1 443-923-9000"}, "hasPerk": false, "location": {"distance": 2619, "labeledLatLngs": [{"lat": 39.29920465039392, "lng": -76.59421760362285, "label": "display"}], "city": "Baltimore", "cc": "US", "country": "United States", "postalCode": "21205", "state": "MD", "formattedAddress": ["707 N Broadway", "Baltimore, MD 21205", "United States"], "address": "707 N Broadway", "lat": 39.29920465039392, "lng": -76.59421760362285}, "beenHere": {"lastCheckinExpiredAt": 0}, "stats": {"tipCount": 3, "checkinsCount": 3827, "usersCount": 486}, "id": "4ad4c019f964a5200bf120e3", "categories": [{"pluralName": "Hospitals", "primary": true, "name": "Hospital", "shortName": "Hospital", "id": "4bf58dd8d48988d196941735", "icon": {"prefix": "https://ss3.4sqi.net/img/categories_v2/building/medical_", "suffix": ".png"}}]}, {"referralId": "v-1489699329", "verified": false, "name": "University of Maryland Medical Center Midtown Campus", "venueRatingBlacklisted": true, "url": "http://ummidtown.org", "hereNow": {"count": 0, "groups": [], "summary": "Nobody here"}, "specials": {"count": 0, "items": []}, "venueChains": [], "contact": {"phone": "+14102258000", "formattedPhone": "+1 410-225-8000"}, "hasPerk": false, "location": {"distance": 1871, "labeledLatLngs": [{"lat": 39.299870710937945, "lng": -76.62058285175141, "label": "display"}], "city": "Baltimore", "cc": "US", "country": "United States", "postalCode": "21201", "state": "MD", "formattedAddress": ["827 Linden Ave (at Madison Ave.)", "Baltimore, MD 21201", "United States"], "crossStreet": "at Madison Ave.", "address": "827 Linden Ave", "lat": 39.299870710937945, "lng": -76.62058285175141}, "beenHere": {"lastCheckinExpiredAt": 0}, "stats": {"tipCount": 14, "checkinsCount": 2161, "usersCount": 533}, "id": "4ad4c019f964a5200ff120e3", "categories": [{"pluralName": "Hospitals", "primary": true, "name": "Hospital", "shortName": "Hospital", "id": "4bf58dd8d48988d196941735", "icon": {"prefix": "https://ss3.4sqi.net/img/categories_v2/building/medical_", "suffix": ".png"}}]}, {"referralId": "v-1489699329", "verified": false, "name": "Levindale Hebrew Geriatric Center & Hospital", "venueRatingBlacklisted": true, "venueChains": [], "hereNow": {"count": 0, "groups": [], "summary": "Nobody here"}, "specials": {"count": 0, "items": []}, "contact": {}, "hasPerk": false, "location": {"distance": 8908, "labeledLatLngs": [{"lat": 39.354165116871386, "lng": -76.66479855075265, "label": "display"}], "city": "Baltimore", "cc": "US", "country": "United States", "postalCode": "21215", "state": "MD", "formattedAddress": ["2434 W Belvedere Ave", "Baltimore, MD 21215", "United States"], "address": "2434 W Belvedere Ave", "lat": 39.354165116871386, "lng": -76.66479855075265}, "beenHere": {"lastCheckinExpiredAt": 0}, "stats": {"tipCount": 2, "checkinsCount": 1364, "usersCount": 148}, "id": "4ad4c019f964a5200df120e3", "categories": [{"pluralName": "Hospitals", "primary": true, "name": "Hospital", "shortName": "Hospital", "id": "4bf58dd8d48988d196941735", "icon": {"prefix": "https://ss3.4sqi.net/img/categories_v2/building/medical_", "suffix": ".png"}}]}, {"referralId": "v-1489699329", "verified": true, "name": "MedStar Harbor Hospital", "venueRatingBlacklisted": true, "url": "http://t.co/tDBoAjbqWY", "hereNow": {"count": 0, "groups": [], "summary": "Nobody here"}, "specials": {"count": 0, "items": []}, "venueChains": [{"id": "5568f127a7c8a9cf8ec427c3"}], "contact": {"facebookName": "MedStar Harbor Hospital", "twitter": "medstarhealth", "phone": "+14103503200", "facebook": "273639594949", "formattedPhone": "+1 410-350-3200", "facebookUsername": "MedStarHarbor"}, "hasPerk": false, "location": {"distance": 3521, "labeledLatLngs": [{"lat": 39.25175022257268, "lng": -76.61434888992636, "label": "display"}], "city": "Baltimore", "cc": "US", "country": "United States", "postalCode": "21225", "state": "MD", "formattedAddress": ["3001 S Hanover St", "Baltimore, MD 21225", "United States"], "address": "3001 S Hanover St", "lat": 39.25175022257268, "lng": -76.61434888992636}, "beenHere": {"lastCheckinExpiredAt": 0}, "stats": {"tipCount": 18, "checkinsCount": 5685, "usersCount": 922}, "id": "4ad4c019f964a5200cf120e3", "categories": [{"pluralName": "Hospitals", "primary": true, "name": "Hospital", "shortName": "Hospital", "id": "4bf58dd8d48988d196941735", "icon": {"prefix": "https://ss3.4sqi.net/img/categories_v2/building/medical_", "suffix": ".png"}}]}, {"referralId": "v-1489699329", "verified": false, "name": "Kimbrough Ambulatory Care Center", "venueRatingBlacklisted": true, "venueChains": [], "hereNow": {"count": 0, "groups": [], "summary": "Nobody here"}, "specials": {"count": 0, "items": []}, "allowMenuUrlEdit": true, "contact": {"phone": "+13016778606", "formattedPhone": "+1 301-677-8606"}, "hasPerk": false, "location": {"distance": 22689, "labeledLatLngs": [{"lat": 39.09875580130129, "lng": -76.72823260528206, "label": "display"}], "city": "Fort Meade", "cc": "US", "country": "United States", "postalCode": "20755", "state": "MD", "formattedAddress": ["Fort Meade, MD 20755", "United States"], "lat": 39.09875580130129, "lng": -76.72823260528206}, "beenHere": {"lastCheckinExpiredAt": 0}, "stats": {"tipCount": 14, "checkinsCount": 1724, "usersCount": 342}, "id": "4b6b2625f964a520f3f52be3", "categories": [{"pluralName": "Hospitals", "primary": true, "name": "Hospital", "shortName": "Hospital", "id": "4bf58dd8d48988d196941735", "icon": {"prefix": "https://ss3.4sqi.net/img/categories_v2/building/medical_", "suffix": ".png"}}]}]}}